{"type":"FeatureCollection","features":[{"type":"Feature","geometry":{"type":"Point","coordinates":[-75.340871,37.890274,0]},"properties":{"name":"ASSATEAGUE ISLAND - TOM'S COVE NORTH","description":"Sample Date:   09/08/2015<br>Sample Result: <10 cfu/100 ml<br><br>Eastern Shore Health District (http://www.vdh.state.va.us/lhd/easternshore/)<br><br>National Park Service - Assateague Island National Seashore (http://www.nps.gov/asis/index.htm)"}},{"type":"Feature","geometry":{"type":"Point","coordinates":[-75.343171,37.886559,0]},"properties":{"name":"ASSATEAGUE ISLAND - TOM'S COVE SOUTH","description":"Sample Date:    09/08/2015<br>Sample Result: <10 cfu/100 ml<br><br>Eastern Shore Health District (http://www.vdh.state.va.us/lhd/easternshore/)<br><br>National Park Service - Assateague Island National Seashore (http://www.nps.gov/asis/index.htm)"}},{"type":"Feature","geometry":{"type":"Point","coordinates":[-75.678892,37.845816,0]},"properties":{"name":"GUARD SHORE","description":"Sample Date:    09/08/2015<br>Sample Result: 22 cfu/100ml <br><br>State Water Quality Standard: 104 cfu/100ml<br><br>Eastern Shore Health District (http://www.vdh.state.va.us/lhd/easternshore/)"}},{"type":"Feature","geometry":{"type":"Point","coordinates":[-75.980759,37.162027,0]},"properties":{"name":"KIPTOPEKE STATE PARK","description":"Sample Date:     09/08/2015<br>Sample Result:  3 cfu/100ml <br><br>State Water Quality Standard: 104 cfu/100ml<br><br>Eastern Shore Health District (http://www.vdh.state.va.us/lhd/easternshore/)"}},{"type":"Feature","geometry":{"type":"Point","coordinates":[-76.021271,37.269682,0]},"properties":{"name":"CAPE CHARLES TOWN BEACH","description":"Sample Date:    09/08/2015<br>Sample Result: 0 cfu/100ml <br><br>State Water Quality Standard: 104 cfu/100ml<br><br>Eastern Shore Health District (http://www.vdh.state.va.us/lhd/easternshore/)"}},{"type":"Feature","geometry":{"type":"Point","coordinates":[-76.291938,37.036852,0]},"properties":{"name":"BUCKROE BEACH","description":"Sample Date:    09/15/2015<br>Sample Result: 6 cfu/100ml <br><br>State Water Quality Standard: 104 cfu/100ml<br><br>Hampton Health District (http://www.vdh.state.va.us/LHD/Hampton/index.htm)"}},{"type":"Feature","geometry":{"type":"Point","coordinates":[-76.297731,37.017083,0]},"properties":{"name":"FORT MONROE","description":"Sample Date:    09/15/2015<br>Sample Result: <10 cfu/100ml <br><br>State Water Quality Standard: 104 cfu/100ml<br><br>Hampton Health District (http://www.vdh.state.va.us/LHD/Hampton/index.htm)"}},{"type":"Feature","geometry":{"type":"Point","coordinates":[-76.282668,37.057917,0]},"properties":{"name":"SALT PONDS","description":"Sample Date:    09/15/2015<br>Sample Result: <10 cfu/100ml <br><br>State Water Quality Standard: <104 cfu/100ml<br><br>Hampton Health District (http://www.vdh.state.va.us/LHD/Hampton/index.htm)"}},{"type":"Feature","geometry":{"type":"Point","coordinates":[-76.277314,36.967972,0]},"properties":{"name":"10TH VIEW","description":"Sample Date:    09/28/2015<br>Sample Result: 31 cfu/100 ml<br><br>State Water Quality Standard: 104 cfu/100ml<br><br>Norfolk Department of Health (http://www.norfolk.gov/pub_health/)"}},{"type":"Feature","geometry":{"type":"Point","coordinates":[-76.288397,36.968675,0]},"properties":{"name":"13th View, North End","description":"Sample Date:     09/28/2015<br>Sample Result:  31 cfu/100 ml<br><br>State Water Quality Standard: 104 cfu/100ml<br><br>Norfolk Department of Health (http://www.norfolk.gov/pub_health/)"}},{"type":"Feature","geometry":{"type":"Point","coordinates":[-76.192331,36.93137,0]},"properties":{"name":"21ST BAY STREET, North End ","description":"Sample Date:    09/28/2015<br>Sample Result: 10 cfu/100 ml<br><br>State Water Quality Standard: 104 cfu/100ml<br><br>Norfolk Department of Health (http://www.norfolk.gov/pub_health/)"}},{"type":"Feature","geometry":{"type":"Point","coordinates":[-76.211128,36.935898,0]},"properties":{"name":"5TH BAY STREET, North End","description":"Sample Date:    09/28/2015<br>Sample Result: 10 cfu/100 ml<br><br>State Water Quality Standard: 104 cfu/100ml<br><br>Norfolk Department of Health (http://www.norfolk.gov/pub_health/)"}},{"type":"Feature","geometry":{"type":"Point","coordinates":[-76.221943,36.939071000000006,0]},"properties":{"name":"CAPEVIEW AVE., North End","description":"Sample Date:    09/28/2015<br>Sample Result: 69 cfu/100 ml<br><br>State Water Quality Standard: 104 cfu/100ml<br><br>Norfolk Department of Health (http://www.norfolk.gov/pub_health/)"}},{"type":"Feature","geometry":{"type":"Point","coordinates":[-76.272411,36.964226,0]},"properties":{"name":"CAPTAINS QUARTERS","description":"Sample Date:    09/28/2015<br>Sample Result: 41 cfu/100 ml<br><br>State Water Quality Standard: 104 cfu/100ml<br><br>Norfolk Department of Health (http://www.norfolk.gov/pub_health/)"}},{"type":"Feature","geometry":{"type":"Point","coordinates":[-76.183673,36.929757,0]},"properties":{"name":"EAST COMMUNITY BEACH","description":"Sample Date:    09/28/2015<br>Sample Result: 31 cfu/100 ml<br><br>State Water Quality Standard: 104 cfu/100ml<br><br>Norfolk Department of Health (http://www.norfolk.gov/pub_health/)"}},{"type":"Feature","geometry":{"type":"Point","coordinates":[-76.244602,36.950989,0]},"properties":{"name":"NORTH COMMUNITY BEACH","description":"Sample Date:    09/28/2015<br>Sample Result: 11 cfu/100 ml<br><br>State Water Quality Standard: 104 cfu/100ml<br><br>Norfolk Department of Health (http://www.norfolk.gov/pub_health/)"}},{"type":"Feature","geometry":{"type":"Point","coordinates":[-76.250911,36.955516,0]},"properties":{"name":"OCEAN VIEW PARK","description":"Sample Date:    09/28/2015<br>Sample Result: <10 cfu/100 ml<br><br>State Water Quality Standard: 104 cfu/100ml<br><br>Norfolk Department of Health (http://www.norfolk.gov/pub_health/)"}},{"type":"Feature","geometry":{"type":"Point","coordinates":[-76.257906,36.959391000000004,0]},"properties":{"name":"SARA CONSTANCE PARK","description":"Sample Date:    09/28/2015<br>Sample Result: <10 cfu/100 ml<br><br>State Water Quality Standard: 104 cfu/100ml<br><br>Norfolk Department of Health (http://www.norfolk.gov/pub_health/)"}},{"type":"Feature","geometry":{"type":"Point","coordinates":[-76.400836,36.976647,0]},"properties":{"name":"ANDERSON PARK","description":"Sample Date:    09/08/2015<br>Sample Result: 15 cfu/100 ml<br><br> State Water Quality Standard: 104 cfu/100ml<br><br>Peninsula Health District (http://www.vdh.state.va.us/LHD/peninsula/)"}},{"type":"Feature","geometry":{"type":"Point","coordinates":[-76.465015,37.027919,0]},"properties":{"name":"HILTON BEACH","description":"Sample Date:    09/08/15<br>Sample Result: 69 cfu/100 ml<br><br>State Water Quality Standard: 104 cfu/100ml<br><br>Peninsula Health District (http://www.vdh.state.va.us/LHD/peninsula/)"}},{"type":"Feature","geometry":{"type":"Point","coordinates":[-76.455499,37.015395,0]},"properties":{"name":"HUNTINGTON BEACH","description":"Sample Date:   09/08/15<br>Sample Result 10 cfu/100 ml<br> <br>State Water Quality Standard: 104 cfu/100ml<br><br> Peninsula Health District (http://www.vdh.state.va.us/LHD/peninsula/)"}},{"type":"Feature","geometry":{"type":"Point","coordinates":[-76.409998,36.966729,0]},"properties":{"name":"KING-LINCOLN PARK","description":"Sample Date:    09/08/15<br>Sample Result: <10 cfu/100 ml<br><br>State Water Quality Standard: 104 cfu/100ml<br><br> Peninsula Health District (http://www.vdh.state.va.us/LHD/peninsula/)"}},{"type":"Feature","geometry":{"type":"Point","coordinates":[-76.506552,37.237085,0]},"properties":{"name":"YORKTOWN BEACH","description":"Sample Date:     09/08/15<br>Sample Result:  61 cfu/100 ml<br><br>State Water Quality Standard: 104 cfu/100ml<br><br>Peninsula Health District (http://www.vdh.state.va.us/LHD/peninsula/)"}},{"type":"Feature","geometry":{"type":"Point","coordinates":[-77.24071,38.33075,0]},"properties":{"name":"FAIRVIEW BEACH","description":"Sample Date : 08/31/15<br>Sample Result: 84 cfu/100ml<br><br>State Water Quality Standard: 104 cfu/100ml<br><br>Rappahannock Health District (http://www.vdh.state.va.us/LHD/rappahan/index.htm)"}},{"type":"Feature","geometry":{"type":"Point","coordinates":[-76.251554,37.432273,0]},"properties":{"name":"FESTIVAL BEACH","description":"Sample Date:    09/08/2015<br>Sample Result:  6 cfu/100ml <br>State Water Quality Standard: 104 cfu/100ml<br><br> Three Rivers Health District (http://www.vdh.state.va.us/LHD/threeriv/)"}},{"type":"Feature","geometry":{"type":"Point","coordinates":[-76.502813,37.246105,0]},"properties":{"name":"GLOUCESTER POINT BEACH","description":"Sample Date:    09/08/15<br>Sample Result: 10 cfu/100ml <br>State Water Quality Standard: 104 cfu/100ml<br><br>Three Rivers Health District (http://www.vdh.state.va.us/LHD/threeriv/)"}},{"type":"Feature","geometry":{"type":"Point","coordinates":[-75.971698,36.843898,0]},"properties":{"name":"15TH STREET","description":"Sample Date:   09/29/2015<br>Sample Result: <10 cfu/100 ml<br><br>State Water Quality Standard: 104 cfu/100ml<br><br>Virginia Beach Health District (http://www.vdh.state.va.us/LHD/vabeach/index.htm)"}},{"type":"Feature","geometry":{"type":"Point","coordinates":[-75.975652,36.85666,0]},"properties":{"name":"28TH STREET","description":"Sample Date:     09/29/2015<br>Sample Result:  <10 cfu/100 ml<br><br>State Water Quality Standard: 104 cfu/100ml<br><br>Virginia Beach Health District (http://www.vdh.state.va.us/LHD/vabeach/index.htm)"}},{"type":"Feature","geometry":{"type":"Point","coordinates":[-75.980351,36.87298,0]},"properties":{"name":"45TH STREET","description":"Sample Date:    09/29/2015<br>Sample Result: <10 cfu/100 ml<br><br>State Water Quality Standard: 104 cfu/100ml<br><br> Virginia Beach Health District (http://www.vdh.state.va.us/LHD/vabeach/index.htm)"}},{"type":"Feature","geometry":{"type":"Point","coordinates":[-75.984535,36.889506,0]},"properties":{"name":"63RD STREET","description":"Sample Date:    09/29/2015<br>Sample Result: <10 cfu/100 ml<br><br>State Water Quality Standard: 104 cfu/100ml<br><br>Virginia Beach Health District (http://www.vdh.state.va.us/LHD/vabeach/index.htm)"}},{"type":"Feature","geometry":{"type":"Point","coordinates":[-75.987979,36.903681,0]},"properties":{"name":"78TH STREET","description":"Sample Date:    09/29/2015<br>Sample Result: <10 cfu/100 ml<br><br>State Water Quality Standard: 104 cfu/100ml<br><br>Virginia Beach Health District (http://www.vdh.state.va.us/LHD/vabeach/index.htm)"}},{"type":"Feature","geometry":{"type":"Point","coordinates":[-75.921782,36.692132,0]},"properties":{"name":"BACK BAY BEACH","description":"Sample Date:    09/29/2015<br>Sample Result: <10 cfu/100 ml<br><br>State Water Quality Standard: 104 cfu/100ml<br><br>Virginia Beach Health District (http://www.vdh.state.va.us/LHD/vabeach/index.htm)"}},{"type":"Feature","geometry":{"type":"Point","coordinates":[-75.9665,36.818097,0]},"properties":{"name":"CAMP PENDLETON","description":"Sample Date:    09/29/2015<br>Sample Result: <10 cfu/100 ml<br><br>State Water Quality Standard: 104 cfu/100ml<br><br>Virginia Beach Health District (http://www.vdh.state.va.us/LHD/vabeach/index.htm)"}},{"type":"Feature","geometry":{"type":"Point","coordinates":[-76.113431,36.913898,0]},"properties":{"name":"CHESAPEAKE BEACH","description":"Sample Date:    09/29/2015<br>Sample Result: <10 cfu/100 ml<br><br>State Water Quality Standard: 104 cfu/100ml<br><br>Virginia Beach Health District (http://www.vdh.state.va.us/LHD/vabeach/index.htm)"}},{"type":"Feature","geometry":{"type":"Point","coordinates":[-76.13181,36.919576,0]},"properties":{"name":"CHICK'S BEACH","description":"Sample Date:    09/29/2015<br>Sample Result: <10 cfu/100 ml<br><br>State Water Quality Standard: 104 cfu/100ml<br><br>Virginia Beach Health District (http://www.vdh.state.va.us/LHD/vabeach/index.htm)"}},{"type":"Feature","geometry":{"type":"Point","coordinates":[-75.9685,36.828799,0]},"properties":{"name":"CROATAN","description":"Sample Date:     09/29/2015<br>Sample Result:  <10 cfu/100 ml<br><br>State Water Quality Standard: 104 cfu/100ml<br><br>Virginia Beach Health District (http://www.vdh.state.va.us/LHD/vabeach/index.htm)"}},{"type":"Feature","geometry":{"type":"Point","coordinates":[-75.95664,36.782686,0]},"properties":{"name":"DAM NECK MIDDLE","description":"Sample Date:    09/01/2015<br>Sample Result: <10 cfu/100 ml<br><br>State Water Quality Standard: 104 cfu/100ml<br><br>Virginia Beach Health District (http://www.vdh.state.va.us/LHD/vabeach/index.htm)"}},{"type":"Feature","geometry":{"type":"Point","coordinates":[-75.958164,36.787704,0]},"properties":{"name":"DAM NECK NORTH","description":"Sample Date:    09/01/2015<br>Sample Result: <10 cfu/100 ml<br><br>State Water Quality Standard: 104 cfu/100ml<br><br>Virginia Beach Health District (http://www.vdh.state.va.us/LHD/vabeach/index.htm)"}},{"type":"Feature","geometry":{"type":"Point","coordinates":[-75.952606,36.771617,0]},"properties":{"name":"DAM NECK SOUTH","description":"Sample Date:   09/01/2015<br>Sample Result: <10 cfu/100 ml<br><br>State Water Quality Standard: 104 cfu/100ml<br><br>Virginia Beach Health District (http://www.vdh.state.va.us/LHD/vabeach/index.htm)"}},{"type":"Feature","geometry":{"type":"Point","coordinates":[-76.053811,36.91889,0]},"properties":{"name":"FIRST LANDING PARK","description":"Sample Date:    09/29/2015<br>Sample Result: <10 cfu/100 ml<br><br>State Water Quality Standard: 104 cfu/100ml<br><br>Virginia Beach Health District (http://www.vdh.state.va.us/LHD/vabeach/index.htm)"}},{"type":"Feature","geometry":{"type":"Point","coordinates":[-75.993311,36.916634,0]},"properties":{"name":"FORT STORY SOUTH","description":"Sample Date:    09/08/2015<br>Sample Result: <10 cfu/100 ml<br><br>State Water Quality Standard: 104 cfu/100ml<br><br>Virginia Beach Health District (http://www.vdh.state.va.us/LHD/vabeach/index.htm)"}},{"type":"Feature","geometry":{"type":"Point","coordinates":[-76.043758,36.926224,0]},"properties":{"name":"FORT STORY WEST","description":"Sample Date:    09/29/2015<br>Sample Result: <10 cfu/100 ml<br><br>State Water Quality Standard: 104 cfu/100ml<br><br>Virginia Beach Health District (http://www.vdh.state.va.us/LHD/vabeach/index.htm)"}},{"type":"Feature","geometry":{"type":"Point","coordinates":[-76.0847,36.911728,0]},"properties":{"name":"LESNER BRIDGE EAST","description":"Sample Date:     09/29/2015<br>Sample Result:  <10 cfu/100 ml<br><br>State Water Quality Standard: 104 cfu/100ml<br><br>Virginia Beach Health District (http://www.vdh.state.va.us/LHD/vabeach/index.htm)"}},{"type":"Feature","geometry":{"type":"Point","coordinates":[-75.934528,36.723321,0]},"properties":{"name":"LITTLE ISLAND BEACH NORTH","description":"Sample Date:    09/29/2015<br>Sample Result: <10 cfu/100 ml<br><br>State Water Quality Standard: 104 cfu/100ml<br><br>Virginia Beach Health District (http://www.vdh.state.va.us/LHD/vabeach/index.htm)"}},{"type":"Feature","geometry":{"type":"Point","coordinates":[-75.928134,36.706664,0]},"properties":{"name":"LITTLE ISLAND BEACH SOUTH","description":"Sample Date:     09/29/2015<br>Sample Result:  <10 cfu/100 ml<br><br>State Water Quality Standard: 104 cfu/100ml<br><br>Virginia Beach Health District (http://www.vdh.state.va.us/LHD/vabeach/index.htm)"}},{"type":"Feature","geometry":{"type":"Point","coordinates":[-75.945858,36.752906,0]},"properties":{"name":"SANDBRIDGE NORTH","description":"Sample Date:    09/29/2015<br>Sample Result: <10 cfu/100 ml<br><br>State Water Quality Standard: 104 cfu/100ml<br><br>Virginia Beach Health District (http://www.vdh.state.va.us/LHD/vabeach/index.htm)"}},{"type":"Feature","geometry":{"type":"Point","coordinates":[-75.939646,36.736683,0]},"properties":{"name":"SANDBRIDGE SOUTH","description":"Sample Date:    09/29/2015<br>Sample Result: <10 cfu/100 ml<br><br>State Water Quality Standard: 104 cfu/100ml<br><br>Virginia Beach Health District (http://www.vdh.state.va.us/LHD/vabeach/index.htm)"}},{"type":"Feature","geometry":{"type":"Point","coordinates":[-76.071782,36.913906,0]},"properties":{"name":"SEA GATE","description":"Sample Date:    09/29/2015<br>Sample Result: 10 cfu/100 ml<br><br>State Water Quality Standard: 104 cfu/100ml<br><br>Virginia Beach Health District (http://www.vdh.state.va.us/LHD/vabeach/index.htm)"}}]}