{"type":"Topology","objects":{"collection":{"type":"GeometryCollection","geometries":[{"type":"Point","properties":{"Zip Code":20101,"Name":"Dulles","State":"VA","Locality":"Loudoun"},"coordinates":[7443,8624]},{"type":"Point","properties":{"Zip Code":20102,"Name":"Dulles","State":"VA","Locality":"Loudoun"},"coordinates":[7443,8624]},{"type":"Point","properties":{"Zip Code":20103,"Name":"Dulles","State":"VA","Locality":"Loudoun"},"coordinates":[7443,8624]},{"type":"Point","properties":{"Zip Code":20104,"Name":"Dulles","State":"VA","Locality":"Loudoun"},"coordinates":[7443,8624]},{"type":"Point","properties":{"Zip Code":20105,"Name":"Aldie","State":"VA","Locality":"Loudoun"},"coordinates":[7208,8577]},{"type":"Point","properties":{"Zip Code":20106,"Name":"Amissville","State":"VA","Locality":"Culpeper"},"coordinates":[6773,7498]},{"type":"Point","properties":{"Zip Code":20107,"Name":"Arcola","State":"VA","Locality":"Loudoun"},"coordinates":[7340,8492]},{"type":"Point","properties":{"Zip Code":20108,"Name":"Manassas","State":"VA","Locality":"Manassas City"},"coordinates":[7416,7783]},{"type":"Point","properties":{"Zip Code":20109,"Name":"Manassas","State":"VA","Locality":"Prince William"},"coordinates":[7335,8100]},{"type":"Point","properties":{"Zip Code":20110,"Name":"Manassas","State":"VA","Locality":"Manassas City"},"coordinates":[7407,7780]},{"type":"Point","properties":{"Zip Code":20111,"Name":"Manassas","State":"VA","Locality":"Prince William"},"coordinates":[7419,7897]},{"type":"Point","properties":{"Zip Code":20112,"Name":"Manassas","State":"VA","Locality":"Prince William"},"coordinates":[7465,7532]},{"type":"Point","properties":{"Zip Code":20113,"Name":"Manassas","State":"VA","Locality":"Manassas Park City"},"coordinates":[7358,7875]},{"type":"Point","properties":{"Zip Code":20115,"Name":"Marshall","State":"VA","Locality":"Fauquier"},"coordinates":[6894,8038]},{"type":"Point","properties":{"Zip Code":20116,"Name":"Marshall","State":"VA","Locality":"Fauquier"},"coordinates":[6897,8045]},{"type":"Point","properties":{"Zip Code":20117,"Name":"Middleburg","State":"VA","Locality":"Loudoun"},"coordinates":[7079,8618]},{"type":"Point","properties":{"Zip Code":20118,"Name":"Middleburg","State":"VA","Locality":"Loudoun"},"coordinates":[7108,8678]},{"type":"Point","properties":{"Zip Code":20119,"Name":"Catlett","State":"VA","Locality":"Fauquier"},"coordinates":[7209,7435]},{"type":"Point","properties":{"Zip Code":20120,"Name":"Centreville","State":"VA","Locality":"Fairfax"},"coordinates":[7450,8138]},{"type":"Point","properties":{"Zip Code":20121,"Name":"Centreville","State":"VA","Locality":"Fairfax"},"coordinates":[7454,8047]},{"type":"Point","properties":{"Zip Code":20122,"Name":"Centreville","State":"VA","Locality":"Fairfax"},"coordinates":[7417,8104]},{"type":"Point","properties":{"Zip Code":20124,"Name":"Clifton","State":"VA","Locality":"Fairfax"},"coordinates":[7521,7883]},{"type":"Point","properties":{"Zip Code":20128,"Name":"Orlean","State":"VA","Locality":"Fauquier"},"coordinates":[6814,7776]},{"type":"Point","properties":{"Zip Code":20129,"Name":"Paeonian Springs","State":"VA","Locality":"Loudoun"},"coordinates":[7235,9193]},{"type":"Point","properties":{"Zip Code":20130,"Name":"Paris","State":"VA","Locality":"Clarke"},"coordinates":[6827,8680]},{"type":"Point","properties":{"Zip Code":20131,"Name":"Philomont","State":"VA","Locality":"Loudoun"},"coordinates":[7086,8863]},{"type":"Point","properties":{"Zip Code":20132,"Name":"Purcellville","State":"VA","Locality":"Loudoun"},"coordinates":[7113,9212]},{"type":"Point","properties":{"Zip Code":20134,"Name":"Purcellville","State":"VA","Locality":"Loudoun"},"coordinates":[7119,9158]},{"type":"Point","properties":{"Zip Code":20135,"Name":"Bluemont","State":"VA","Locality":"Clarke"},"coordinates":[6971,9058]},{"type":"Point","properties":{"Zip Code":20136,"Name":"Bristow","State":"VA","Locality":"Prince William"},"coordinates":[7337,7680]},{"type":"Point","properties":{"Zip Code":20137,"Name":"Broad Run","State":"VA","Locality":"Fauquier"},"coordinates":[7120,8038]},{"type":"Point","properties":{"Zip Code":20138,"Name":"Calverton","State":"VA","Locality":"Fauquier"},"coordinates":[7172,7358]},{"type":"Point","properties":{"Zip Code":20139,"Name":"Casanova","State":"VA","Locality":"Fauquier"},"coordinates":[7115,7449]},{"type":"Point","properties":{"Zip Code":20140,"Name":"Rectortown","State":"VA","Locality":"Fauquier"},"coordinates":[6937,8384]},{"type":"Point","properties":{"Zip Code":20141,"Name":"Round Hill","State":"VA","Locality":"Loudoun"},"coordinates":[7041,9119]},{"type":"Point","properties":{"Zip Code":20142,"Name":"Round Hill","State":"VA","Locality":"Loudoun"},"coordinates":[7023,9030]},{"type":"Point","properties":{"Zip Code":20143,"Name":"Catharpin","State":"VA","Locality":"Prince William"},"coordinates":[7293,8146]},{"type":"Point","properties":{"Zip Code":20144,"Name":"Delaplane","State":"VA","Locality":"Fauquier"},"coordinates":[6865,8362]},{"type":"Point","properties":{"Zip Code":20146,"Name":"Ashburn","State":"VA","Locality":"Loudoun"},"coordinates":[7384,8778]},{"type":"Point","properties":{"Zip Code":20147,"Name":"Ashburn","State":"VA","Locality":"Loudoun"},"coordinates":[7400,8811]},{"type":"Point","properties":{"Zip Code":20148,"Name":"Ashburn","State":"VA","Locality":"Loudoun"},"coordinates":[7334,8600]},{"type":"Point","properties":{"Zip Code":20149,"Name":"Ashburn","State":"VA","Locality":"Loudoun"},"coordinates":[7384,8778]},{"type":"Point","properties":{"Zip Code":20151,"Name":"Chantilly","State":"VA","Locality":"Fairfax"},"coordinates":[7457,8261]},{"type":"Point","properties":{"Zip Code":20152,"Name":"Chantilly","State":"VA","Locality":"Loudoun"},"coordinates":[7370,8333]},{"type":"Point","properties":{"Zip Code":20153,"Name":"Chantilly","State":"VA","Locality":"Fairfax"},"coordinates":[7455,8258]},{"type":"Point","properties":{"Zip Code":20155,"Name":"Gainesville","State":"VA","Locality":"Prince William"},"coordinates":[7237,7953]},{"type":"Point","properties":{"Zip Code":20156,"Name":"Gainesville","State":"VA","Locality":"Prince William"},"coordinates":[7215,7956]},{"type":"Point","properties":{"Zip Code":20158,"Name":"Hamilton","State":"VA","Locality":"Loudoun"},"coordinates":[7184,9160]},{"type":"Point","properties":{"Zip Code":20159,"Name":"Hamilton","State":"VA","Locality":"Loudoun"},"coordinates":[7181,9152]},{"type":"Point","properties":{"Zip Code":20160,"Name":"Lincoln","State":"VA","Locality":"Loudoun"},"coordinates":[7142,9073]},{"type":"Point","properties":{"Zip Code":20163,"Name":"Sterling","State":"VA","Locality":"Loudoun"},"coordinates":[7470,8686]},{"type":"Point","properties":{"Zip Code":20164,"Name":"Sterling","State":"VA","Locality":"Loudoun"},"coordinates":[7511,8711]},{"type":"Point","properties":{"Zip Code":20165,"Name":"Sterling","State":"VA","Locality":"Loudoun"},"coordinates":[7520,8820]},{"type":"Point","properties":{"Zip Code":20166,"Name":"Sterling","State":"VA","Locality":"Loudoun"},"coordinates":[7463,8658]},{"type":"Point","properties":{"Zip Code":20167,"Name":"Sterling","State":"VA","Locality":"Loudoun"},"coordinates":[7470,8686]},{"type":"Point","properties":{"Zip Code":20168,"Name":"Haymarket","State":"VA","Locality":"Prince William"},"coordinates":[7215,8000]},{"type":"Point","properties":{"Zip Code":20169,"Name":"Haymarket","State":"VA","Locality":"Prince William"},"coordinates":[7208,8138]},{"type":"Point","properties":{"Zip Code":20170,"Name":"Herndon","State":"VA","Locality":"Fairfax"},"coordinates":[7525,8580]},{"type":"Point","properties":{"Zip Code":20171,"Name":"Herndon","State":"VA","Locality":"Fairfax"},"coordinates":[7529,8435]},{"type":"Point","properties":{"Zip Code":20172,"Name":"Herndon","State":"VA","Locality":"Fairfax"},"coordinates":[7569,8428]},{"type":"Point","properties":{"Zip Code":20175,"Name":"Leesburg","State":"VA","Locality":"Loudoun"},"coordinates":[7287,8972]},{"type":"Point","properties":{"Zip Code":20176,"Name":"Leesburg","State":"VA","Locality":"Loudoun"},"coordinates":[7349,9116]},{"type":"Point","properties":{"Zip Code":20177,"Name":"Leesburg","State":"VA","Locality":"Loudoun"},"coordinates":[7298,9118]},{"type":"Point","properties":{"Zip Code":20178,"Name":"Leesburg","State":"VA","Locality":"Loudoun"},"coordinates":[7298,9118]},{"type":"Point","properties":{"Zip Code":20180,"Name":"Lovettsville","State":"VA","Locality":"Loudoun"},"coordinates":[7214,9631]},{"type":"Point","properties":{"Zip Code":20181,"Name":"Nokesville","State":"VA","Locality":"Prince William"},"coordinates":[7289,7583]},{"type":"Point","properties":{"Zip Code":20182,"Name":"Nokesville","State":"VA","Locality":"Prince William"},"coordinates":[7306,7543]},{"type":"Point","properties":{"Zip Code":20184,"Name":"Upperville","State":"VA","Locality":"Fauquier"},"coordinates":[6925,8667]},{"type":"Point","properties":{"Zip Code":20185,"Name":"Upperville","State":"VA","Locality":"Fauquier"},"coordinates":[6915,8640]},{"type":"Point","properties":{"Zip Code":20186,"Name":"Warrenton","State":"VA","Locality":"Fauquier"},"coordinates":[6994,7622]},{"type":"Point","properties":{"Zip Code":20187,"Name":"Warrenton","State":"VA","Locality":"Fauquier"},"coordinates":[7101,7838]},{"type":"Point","properties":{"Zip Code":20188,"Name":"Warrenton","State":"VA","Locality":"Fauquier"},"coordinates":[7020,7645]},{"type":"Point","properties":{"Zip Code":20189,"Name":"Dulles","State":"VA","Locality":"Loudoun"},"coordinates":[7951,8292]},{"type":"Point","properties":{"Zip Code":20190,"Name":"Reston","State":"VA","Locality":"Fairfax"},"coordinates":[7572,8522]},{"type":"Point","properties":{"Zip Code":20191,"Name":"Reston","State":"VA","Locality":"Fairfax"},"coordinates":[7564,8444]},{"type":"Point","properties":{"Zip Code":20192,"Name":"Herndon","State":"VA","Locality":"Fairfax"},"coordinates":[7547,8485]},{"type":"Point","properties":{"Zip Code":20193,"Name":"Reston","State":"VA","Locality":"Fairfax"},"coordinates":[7583,8519]},{"type":"Point","properties":{"Zip Code":20194,"Name":"Reston","State":"VA","Locality":"Fairfax"},"coordinates":[7570,8588]},{"type":"Point","properties":{"Zip Code":20195,"Name":"Reston","State":"VA","Locality":"Fairfax"},"coordinates":[7569,8428]},{"type":"Point","properties":{"Zip Code":20196,"Name":"Reston","State":"VA","Locality":"Fairfax"},"coordinates":[7509,8399]},{"type":"Point","properties":{"Zip Code":20197,"Name":"Waterford","State":"VA","Locality":"Loudoun"},"coordinates":[7247,9326]},{"type":"Point","properties":{"Zip Code":20198,"Name":"The Plains","State":"VA","Locality":"Fauquier"},"coordinates":[7045,8174]},{"type":"Point","properties":{"Zip Code":20199,"Name":"Dulles","State":"VA","Locality":"Loudoun"},"coordinates":[7436,8668]},{"type":"Point","properties":{"Zip Code":22003,"Name":"Annandale","State":"VA","Locality":"Fairfax"},"coordinates":[7733,8063]},{"type":"Point","properties":{"Zip Code":22009,"Name":"Burke","State":"VA","Locality":"Fairfax"},"coordinates":[7661,7935]},{"type":"Point","properties":{"Zip Code":22015,"Name":"Burke","State":"VA","Locality":"Fairfax"},"coordinates":[7650,7917]},{"type":"Point","properties":{"Zip Code":22025,"Name":"Dumfries","State":"VA","Locality":"Prince William"},"coordinates":[6853,8349]},{"type":"Point","properties":{"Zip Code":22026,"Name":"Dumfries","State":"VA","Locality":"Prince William"},"coordinates":[7580,7253]},{"type":"Point","properties":{"Zip Code":22027,"Name":"Dunn Loring","State":"VA","Locality":"Fairfax"},"coordinates":[7725,8293]},{"type":"Point","properties":{"Zip Code":22030,"Name":"Fairfax","State":"VA","Locality":"Fairfax City"},"coordinates":[7598,8117]},{"type":"Point","properties":{"Zip Code":22031,"Name":"Fairfax","State":"VA","Locality":"Fairfax"},"coordinates":[7671,8168]},{"type":"Point","properties":{"Zip Code":22032,"Name":"Fairfax","State":"VA","Locality":"Fairfax"},"coordinates":[7637,8017]},{"type":"Point","properties":{"Zip Code":22033,"Name":"Fairfax","State":"VA","Locality":"Fairfax"},"coordinates":[7519,8230]},{"type":"Point","properties":{"Zip Code":22034,"Name":"Fairfax","State":"VA","Locality":"Fairfax"},"coordinates":[7670,8165]},{"type":"Point","properties":{"Zip Code":22035,"Name":"Fairfax","State":"VA","Locality":"Fairfax"},"coordinates":[7557,8146]},{"type":"Point","properties":{"Zip Code":22036,"Name":"Fairfax","State":"VA","Locality":"Fairfax"},"coordinates":[7678,8167]},{"type":"Point","properties":{"Zip Code":22037,"Name":"Fairfax","State":"VA","Locality":"Fairfax"},"coordinates":[7718,8165]},{"type":"Point","properties":{"Zip Code":22038,"Name":"Fairfax","State":"VA","Locality":"Fairfax City"},"coordinates":[7620,8125]},{"type":"Point","properties":{"Zip Code":22039,"Name":"Fairfax Station","State":"VA","Locality":"Fairfax"},"coordinates":[7620,7813]},{"type":"Point","properties":{"Zip Code":22040,"Name":"Falls Church","State":"VA","Locality":"Falls Church City"},"coordinates":[7783,8252]},{"type":"Point","properties":{"Zip Code":22041,"Name":"Falls Church","State":"VA","Locality":"Fairfax"},"coordinates":[7828,8126]},{"type":"Point","properties":{"Zip Code":22042,"Name":"Falls Church","State":"VA","Locality":"Fairfax"},"coordinates":[7760,8189]},{"type":"Point","properties":{"Zip Code":22043,"Name":"Falls Church","State":"VA","Locality":"Fairfax"},"coordinates":[7751,8313]},{"type":"Point","properties":{"Zip Code":22044,"Name":"Falls Church","State":"VA","Locality":"Fairfax"},"coordinates":[7811,8180]},{"type":"Point","properties":{"Zip Code":22046,"Name":"Falls Church","State":"VA","Locality":"Falls Church City"},"coordinates":[7775,8258]},{"type":"Point","properties":{"Zip Code":22047,"Name":"Falls Church","State":"VA","Locality":"Fairfax"},"coordinates":[7721,8199]},{"type":"Point","properties":{"Zip Code":22060,"Name":"Fort Belvoir","State":"VA","Locality":"Fairfax"},"coordinates":[7821,7581]},{"type":"Point","properties":{"Zip Code":22066,"Name":"Great Falls","State":"VA","Locality":"Fairfax"},"coordinates":[7618,8678]},{"type":"Point","properties":{"Zip Code":22067,"Name":"Greenway","State":"VA","Locality":"Fairfax"},"coordinates":[7709,8558]},{"type":"Point","properties":{"Zip Code":22079,"Name":"Lorton","State":"VA","Locality":"Fairfax"},"coordinates":[7729,7616]},{"type":"Point","properties":{"Zip Code":22081,"Name":"Merrifield","State":"VA","Locality":"Fairfax"},"coordinates":[7717,8217]},{"type":"Point","properties":{"Zip Code":22082,"Name":"Merrifield","State":"VA","Locality":"Fairfax"},"coordinates":[7717,8217]},{"type":"Point","properties":{"Zip Code":22092,"Name":"Herndon","State":"VA","Locality":"Fairfax"},"coordinates":[7522,8555]},{"type":"Point","properties":{"Zip Code":22093,"Name":"Ashburn","State":"VA","Locality":"Loudoun"},"coordinates":[7397,8819]},{"type":"Point","properties":{"Zip Code":22095,"Name":"Herndon","State":"VA","Locality":"Fairfax"},"coordinates":[7522,8555]},{"type":"Point","properties":{"Zip Code":22096,"Name":"Reston","State":"VA","Locality":"Fairfax"},"coordinates":[7509,8399]},{"type":"Point","properties":{"Zip Code":22101,"Name":"Mc Lean","State":"VA","Locality":"Fairfax"},"coordinates":[7787,8425]},{"type":"Point","properties":{"Zip Code":22102,"Name":"Mc Lean","State":"VA","Locality":"Fairfax"},"coordinates":[7724,8438]},{"type":"Point","properties":{"Zip Code":22103,"Name":"West Mclean","State":"VA","Locality":"Fairfax"},"coordinates":[7702,8411]},{"type":"Point","properties":{"Zip Code":22106,"Name":"Mc Lean","State":"VA","Locality":"Fairfax"},"coordinates":[7777,8441]},{"type":"Point","properties":{"Zip Code":22107,"Name":"Mc Lean","State":"VA","Locality":"Fairfax"},"coordinates":[7772,8425]},{"type":"Point","properties":{"Zip Code":22108,"Name":"Mc Lean","State":"VA","Locality":"Fairfax"},"coordinates":[7772,8425]},{"type":"Point","properties":{"Zip Code":22109,"Name":"Mc Lean","State":"VA","Locality":"Fairfax"},"coordinates":[7772,8425]},{"type":"Point","properties":{"Zip Code":22116,"Name":"Merrifield","State":"VA","Locality":"Fairfax"},"coordinates":[7717,8217]},{"type":"Point","properties":{"Zip Code":22118,"Name":"Merrifield","State":"VA","Locality":"Fairfax"},"coordinates":[7717,8217]},{"type":"Point","properties":{"Zip Code":22119,"Name":"Merrifield","State":"VA","Locality":"Fairfax"},"coordinates":[7717,8217]},{"type":"Point","properties":{"Zip Code":22120,"Name":"Merrifield","State":"VA","Locality":"Fairfax"},"coordinates":[7717,8217]},{"type":"Point","properties":{"Zip Code":22121,"Name":"Mount Vernon","State":"VA","Locality":"Fairfax"},"coordinates":[7891,7627]},{"type":"Point","properties":{"Zip Code":22122,"Name":"Newington","State":"VA","Locality":"Fairfax"},"coordinates":[7769,7735]},{"type":"Point","properties":{"Zip Code":22124,"Name":"Oakton","State":"VA","Locality":"Fairfax"},"coordinates":[7599,8257]},{"type":"Point","properties":{"Zip Code":22125,"Name":"Occoquan","State":"VA","Locality":"Prince William"},"coordinates":[7676,7541]},{"type":"Point","properties":{"Zip Code":22134,"Name":"Quantico","State":"VA","Locality":"Prince William"},"coordinates":[7584,7000]},{"type":"Point","properties":{"Zip Code":22135,"Name":"Quantico","State":"VA","Locality":"Stafford"},"coordinates":[7635,6968]},{"type":"Point","properties":{"Zip Code":22150,"Name":"Springfield","State":"VA","Locality":"Fairfax"},"coordinates":[7767,7882]},{"type":"Point","properties":{"Zip Code":22151,"Name":"Springfield","State":"VA","Locality":"Fairfax"},"coordinates":[7734,7966]},{"type":"Point","properties":{"Zip Code":22152,"Name":"Springfield","State":"VA","Locality":"Fairfax"},"coordinates":[7710,7871]},{"type":"Point","properties":{"Zip Code":22153,"Name":"Springfield","State":"VA","Locality":"Fairfax"},"coordinates":[7705,7759]},{"type":"Point","properties":{"Zip Code":22156,"Name":"Springfield","State":"VA","Locality":"Fairfax"},"coordinates":[7766,7916]},{"type":"Point","properties":{"Zip Code":22158,"Name":"Springfield","State":"VA","Locality":"Fairfax"},"coordinates":[7766,7916]},{"type":"Point","properties":{"Zip Code":22159,"Name":"Springfield","State":"VA","Locality":"Fairfax"},"coordinates":[7766,7916]},{"type":"Point","properties":{"Zip Code":22160,"Name":"Springfield","State":"VA","Locality":"Fairfax"},"coordinates":[7729,7994]},{"type":"Point","properties":{"Zip Code":22161,"Name":"Springfield","State":"VA","Locality":"Fairfax"},"coordinates":[7766,7916]},{"type":"Point","properties":{"Zip Code":22172,"Name":"Triangle","State":"VA","Locality":"Prince William"},"coordinates":[7600,7070]},{"type":"Point","properties":{"Zip Code":22180,"Name":"Vienna","State":"VA","Locality":"Fairfax"},"coordinates":[7685,8286]},{"type":"Point","properties":{"Zip Code":22181,"Name":"Vienna","State":"VA","Locality":"Fairfax"},"coordinates":[7643,8301]},{"type":"Point","properties":{"Zip Code":22182,"Name":"Vienna","State":"VA","Locality":"Fairfax"},"coordinates":[7671,8408]},{"type":"Point","properties":{"Zip Code":22183,"Name":"Vienna","State":"VA","Locality":"Fairfax"},"coordinates":[7667,8314]},{"type":"Point","properties":{"Zip Code":22184,"Name":"Vienna","State":"VA","Locality":"Fairfax"},"coordinates":[7667,8314]},{"type":"Point","properties":{"Zip Code":22185,"Name":"Vienna","State":"VA","Locality":"Fairfax"},"coordinates":[7627,8241]},{"type":"Point","properties":{"Zip Code":22191,"Name":"Woodbridge","State":"VA","Locality":"Prince William"},"coordinates":[7667,7371]},{"type":"Point","properties":{"Zip Code":22192,"Name":"Woodbridge","State":"VA","Locality":"Prince William"},"coordinates":[7622,7540]},{"type":"Point","properties":{"Zip Code":22193,"Name":"Woodbridge","State":"VA","Locality":"Prince William"},"coordinates":[7575,7412]},{"type":"Point","properties":{"Zip Code":22194,"Name":"Woodbridge","State":"VA","Locality":"Prince William"},"coordinates":[7667,7357]},{"type":"Point","properties":{"Zip Code":22195,"Name":"Woodbridge","State":"VA","Locality":"Prince William"},"coordinates":[7666,7361]},{"type":"Point","properties":{"Zip Code":22199,"Name":"Lorton","State":"VA","Locality":"Fairfax"},"coordinates":[7716,7614]},{"type":"Point","properties":{"Zip Code":22201,"Name":"Arlington","State":"VA","Locality":"Arlington"},"coordinates":[7882,8263]},{"type":"Point","properties":{"Zip Code":22202,"Name":"Arlington","State":"VA","Locality":"Arlington"},"coordinates":[7924,8155]},{"type":"Point","properties":{"Zip Code":22203,"Name":"Arlington","State":"VA","Locality":"Arlington"},"coordinates":[7856,8216]},{"type":"Point","properties":{"Zip Code":22204,"Name":"Arlington","State":"VA","Locality":"Arlington"},"coordinates":[7874,8163]},{"type":"Point","properties":{"Zip Code":22205,"Name":"Arlington","State":"VA","Locality":"Arlington"},"coordinates":[7825,8251]},{"type":"Point","properties":{"Zip Code":22206,"Name":"Arlington","State":"VA","Locality":"Arlington"},"coordinates":[7886,8102]},{"type":"Point","properties":{"Zip Code":22207,"Name":"Arlington","State":"VA","Locality":"Arlington"},"coordinates":[7842,8321]},{"type":"Point","properties":{"Zip Code":22209,"Name":"Arlington","State":"VA","Locality":"Arlington"},"coordinates":[7904,8283]},{"type":"Point","properties":{"Zip Code":22210,"Name":"Arlington","State":"VA","Locality":"Arlington"},"coordinates":[7874,8258]},{"type":"Point","properties":{"Zip Code":22211,"Name":"Ft Myer","State":"VA","Locality":"Arlington"},"coordinates":[7898,8236]},{"type":"Point","properties":{"Zip Code":22212,"Name":"Arlington","State":"VA","Locality":"Arlington"},"coordinates":[8176,8241]},{"type":"Point","properties":{"Zip Code":22213,"Name":"Arlington","State":"VA","Locality":"Arlington"},"coordinates":[7796,8293]},{"type":"Point","properties":{"Zip Code":22214,"Name":"Arlington","State":"VA","Locality":"Arlington"},"coordinates":[7898,8236]},{"type":"Point","properties":{"Zip Code":22215,"Name":"Arlington","State":"VA","Locality":"Arlington"},"coordinates":[7858,8236]},{"type":"Point","properties":{"Zip Code":22216,"Name":"Arlington","State":"VA","Locality":"Arlington"},"coordinates":[7894,8279]},{"type":"Point","properties":{"Zip Code":22217,"Name":"Arlington","State":"VA","Locality":"Arlington"},"coordinates":[7874,8258]},{"type":"Point","properties":{"Zip Code":22218,"Name":"Arlington","State":"VA","Locality":"Arlington"},"coordinates":[7874,8258]},{"type":"Point","properties":{"Zip Code":22219,"Name":"Arlington","State":"VA","Locality":"Arlington"},"coordinates":[7911,8289]},{"type":"Point","properties":{"Zip Code":22222,"Name":"Arlington","State":"VA","Locality":"Arlington"},"coordinates":[7931,8161]},{"type":"Point","properties":{"Zip Code":22223,"Name":"Arlington","State":"VA","Locality":"Arlington"},"coordinates":[7882,8262]},{"type":"Point","properties":{"Zip Code":22225,"Name":"Arlington","State":"VA","Locality":"Arlington"},"coordinates":[7925,8155]},{"type":"Point","properties":{"Zip Code":22226,"Name":"Arlington","State":"VA","Locality":"Arlington"},"coordinates":[7874,8258]},{"type":"Point","properties":{"Zip Code":22227,"Name":"Arlington","State":"VA","Locality":"Arlington"},"coordinates":[7931,8161]},{"type":"Point","properties":{"Zip Code":22229,"Name":"Arlington","State":"VA","Locality":"Arlington"},"coordinates":[7911,8289]},{"type":"Point","properties":{"Zip Code":22230,"Name":"Arlington","State":"VA","Locality":"Arlington"},"coordinates":[7869,8213]},{"type":"Point","properties":{"Zip Code":22234,"Name":"Arlington","State":"VA","Locality":"Arlington"},"coordinates":[7911,8289]},{"type":"Point","properties":{"Zip Code":22240,"Name":"Arlington","State":"VA","Locality":"Arlington"},"coordinates":[7855,8238]},{"type":"Point","properties":{"Zip Code":22241,"Name":"Arlington","State":"VA","Locality":"Arlington"},"coordinates":[7931,8161]},{"type":"Point","properties":{"Zip Code":22242,"Name":"Arlington","State":"VA","Locality":"Arlington"},"coordinates":[7931,8161]},{"type":"Point","properties":{"Zip Code":22243,"Name":"Arlington","State":"VA","Locality":"Arlington"},"coordinates":[7931,8161]},{"type":"Point","properties":{"Zip Code":22244,"Name":"Arlington","State":"VA","Locality":"Arlington"},"coordinates":[7931,8161]},{"type":"Point","properties":{"Zip Code":22245,"Name":"Arlington","State":"VA","Locality":"Arlington"},"coordinates":[7931,8161]},{"type":"Point","properties":{"Zip Code":22246,"Name":"Arlington","State":"VA","Locality":"Arlington"},"coordinates":[7932,8158]},{"type":"Point","properties":{"Zip Code":22301,"Name":"Alexandria","State":"VA","Locality":"Alexandria City"},"coordinates":[7924,8025]},{"type":"Point","properties":{"Zip Code":22302,"Name":"Alexandria","State":"VA","Locality":"Alexandria City"},"coordinates":[7883,8073]},{"type":"Point","properties":{"Zip Code":22303,"Name":"Alexandria","State":"VA","Locality":"Fairfax"},"coordinates":[7903,7923]},{"type":"Point","properties":{"Zip Code":22304,"Name":"Alexandria","State":"VA","Locality":"Alexandria City"},"coordinates":[7848,8007]},{"type":"Point","properties":{"Zip Code":22305,"Name":"Alexandria","State":"VA","Locality":"Alexandria City"},"coordinates":[7918,8086]},{"type":"Point","properties":{"Zip Code":22306,"Name":"Alexandria","State":"VA","Locality":"Fairfax"},"coordinates":[7892,7797]},{"type":"Point","properties":{"Zip Code":22307,"Name":"Alexandria","State":"VA","Locality":"Fairfax"},"coordinates":[7920,7850]},{"type":"Point","properties":{"Zip Code":22308,"Name":"Alexandria","State":"VA","Locality":"Fairfax"},"coordinates":[7922,7703]},{"type":"Point","properties":{"Zip Code":22309,"Name":"Alexandria","State":"VA","Locality":"Fairfax"},"coordinates":[7864,7698]},{"type":"Point","properties":{"Zip Code":22310,"Name":"Alexandria","State":"VA","Locality":"Fairfax"},"coordinates":[7835,7845]},{"type":"Point","properties":{"Zip Code":22311,"Name":"Alexandria","State":"VA","Locality":"Alexandria City"},"coordinates":[7849,8068]},{"type":"Point","properties":{"Zip Code":22312,"Name":"Alexandria","State":"VA","Locality":"Fairfax"},"coordinates":[7814,8022]},{"type":"Point","properties":{"Zip Code":22313,"Name":"Alexandria","State":"VA","Locality":"Alexandria City"},"coordinates":[7939,7971]},{"type":"Point","properties":{"Zip Code":22314,"Name":"Alexandria","State":"VA","Locality":"Alexandria City"},"coordinates":[7932,7976]},{"type":"Point","properties":{"Zip Code":22315,"Name":"Alexandria","State":"VA","Locality":"Fairfax"},"coordinates":[7818,7800]},{"type":"Point","properties":{"Zip Code":22320,"Name":"Alexandria","State":"VA","Locality":"Alexandria City"},"coordinates":[7939,7971]},{"type":"Point","properties":{"Zip Code":22321,"Name":"Alexandria","State":"VA","Locality":"Fairfax"},"coordinates":[7932,7976]},{"type":"Point","properties":{"Zip Code":22331,"Name":"Alexandria","State":"VA","Locality":"Alexandria City"},"coordinates":[7939,7971]},{"type":"Point","properties":{"Zip Code":22332,"Name":"Alexandria","State":"VA","Locality":"Alexandria City"},"coordinates":[7939,7971]},{"type":"Point","properties":{"Zip Code":22333,"Name":"Alexandria","State":"VA","Locality":"Alexandria City"},"coordinates":[7939,7971]},{"type":"Point","properties":{"Zip Code":22334,"Name":"Alexandria","State":"VA","Locality":"Alexandria City"},"coordinates":[7939,7971]},{"type":"Point","properties":{"Zip Code":22336,"Name":"Alexandria","State":"VA","Locality":"Alexandria City"},"coordinates":[7939,7971]},{"type":"Point","properties":{"Zip Code":22401,"Name":"Fredericksburg","State":"VA","Locality":"Fredericksburg City"},"coordinates":[7410,6178]},{"type":"Point","properties":{"Zip Code":22402,"Name":"Fredericksburg","State":"VA","Locality":"Fredericksburg City"},"coordinates":[7433,6175]},{"type":"Point","properties":{"Zip Code":22403,"Name":"Fredericksburg","State":"VA","Locality":"Stafford"},"coordinates":[7421,6266]},{"type":"Point","properties":{"Zip Code":22404,"Name":"Fredericksburg","State":"VA","Locality":"Fredericksburg City"},"coordinates":[7433,6175]},{"type":"Point","properties":{"Zip Code":22405,"Name":"Fredericksburg","State":"VA","Locality":"Stafford"},"coordinates":[7499,6232]},{"type":"Point","properties":{"Zip Code":22406,"Name":"Fredericksburg","State":"VA","Locality":"Stafford"},"coordinates":[7339,6462]},{"type":"Point","properties":{"Zip Code":22407,"Name":"Fredericksburg","State":"VA","Locality":"Spotsylvania"},"coordinates":[7324,6069]},{"type":"Point","properties":{"Zip Code":22408,"Name":"Fredericksburg","State":"VA","Locality":"Spotsylvania"},"coordinates":[7421,5996]},{"type":"Point","properties":{"Zip Code":22412,"Name":"Fredericksburg","State":"VA","Locality":"Stafford"},"coordinates":[7319,6524]},{"type":"Point","properties":{"Zip Code":22427,"Name":"Bowling Green","State":"VA","Locality":"Caroline"},"coordinates":[7775,5164]},{"type":"Point","properties":{"Zip Code":22428,"Name":"Bowling Green","State":"VA","Locality":"Caroline"},"coordinates":[7570,5291]},{"type":"Point","properties":{"Zip Code":22430,"Name":"Brooke","State":"VA","Locality":"Stafford"},"coordinates":[7530,6490]},{"type":"Point","properties":{"Zip Code":22432,"Name":"Burgess","State":"VA","Locality":"Northumberland"},"coordinates":[8791,4649]},{"type":"Point","properties":{"Zip Code":22433,"Name":"Burr Hill","State":"VA","Locality":"Orange"},"coordinates":[6920,6414]},{"type":"Point","properties":{"Zip Code":22435,"Name":"Callao","State":"VA","Locality":"Northumberland"},"coordinates":[8521,5035]},{"type":"Point","properties":{"Zip Code":22436,"Name":"Caret","State":"VA","Locality":"Essex"},"coordinates":[8101,5013]},{"type":"Point","properties":{"Zip Code":22437,"Name":"Center Cross","State":"VA","Locality":"Essex"},"coordinates":[8298,4380]},{"type":"Point","properties":{"Zip Code":22438,"Name":"Champlain","State":"VA","Locality":"Essex"},"coordinates":[8031,5191]},{"type":"Point","properties":{"Zip Code":22442,"Name":"Coles Point","State":"VA","Locality":"Westmoreland"},"coordinates":[8444,5625]},{"type":"Point","properties":{"Zip Code":22443,"Name":"Colonial Beach","State":"VA","Locality":"Westmoreland"},"coordinates":[8020,5928]},{"type":"Point","properties":{"Zip Code":22446,"Name":"Corbin","State":"VA","Locality":"Caroline"},"coordinates":[7518,5823]},{"type":"Point","properties":{"Zip Code":22448,"Name":"Dahlgren","State":"VA","Locality":"King George"},"coordinates":[7944,6313]},{"type":"Point","properties":{"Zip Code":22451,"Name":"Dogue","State":"VA","Locality":"King George"},"coordinates":[7731,5938]},{"type":"Point","properties":{"Zip Code":22454,"Name":"Dunnsville","State":"VA","Locality":"Essex"},"coordinates":[8197,4549]},{"type":"Point","properties":{"Zip Code":22456,"Name":"Edwardsville","State":"VA","Locality":"Northumberland"},"coordinates":[8777,4783]},{"type":"Point","properties":{"Zip Code":22460,"Name":"Farnham","State":"VA","Locality":"Richmond"},"coordinates":[8482,4668]},{"type":"Point","properties":{"Zip Code":22463,"Name":"Garrisonville","State":"VA","Locality":"Stafford"},"coordinates":[7472,6828]},{"type":"Point","properties":{"Zip Code":22469,"Name":"Hague","State":"VA","Locality":"Westmoreland"},"coordinates":[8413,5319]},{"type":"Point","properties":{"Zip Code":22471,"Name":"Hartwood","State":"VA","Locality":"Stafford"},"coordinates":[7302,6543]},{"type":"Point","properties":{"Zip Code":22472,"Name":"Haynesville","State":"VA","Locality":"Richmond"},"coordinates":[8411,4938]},{"type":"Point","properties":{"Zip Code":22473,"Name":"Heathsville","State":"VA","Locality":"Northumberland"},"coordinates":[8713,4786]},{"type":"Point","properties":{"Zip Code":22476,"Name":"Hustle","State":"VA","Locality":"Essex"},"coordinates":[7952,5194]},{"type":"Point","properties":{"Zip Code":22480,"Name":"Irvington","State":"VA","Locality":"Lancaster"},"coordinates":[8715,3925]},{"type":"Point","properties":{"Zip Code":22481,"Name":"Jersey","State":"VA","Locality":"King George"},"coordinates":[7825,5865]},{"type":"Point","properties":{"Zip Code":22482,"Name":"Kilmarnock","State":"VA","Locality":"Lancaster"},"coordinates":[8757,4108]},{"type":"Point","properties":{"Zip Code":22485,"Name":"King George","State":"VA","Locality":"King George"},"coordinates":[7842,6113]},{"type":"Point","properties":{"Zip Code":22488,"Name":"Kinsale","State":"VA","Locality":"Westmoreland"},"coordinates":[8506,5294]},{"type":"Point","properties":{"Zip Code":22501,"Name":"Ladysmith","State":"VA","Locality":"Caroline"},"coordinates":[7363,5177]},{"type":"Point","properties":{"Zip Code":22503,"Name":"Lancaster","State":"VA","Locality":"Lancaster"},"coordinates":[8599,4228]},{"type":"Point","properties":{"Zip Code":22504,"Name":"Laneview","State":"VA","Locality":"Essex"},"coordinates":[8351,4292]},{"type":"Point","properties":{"Zip Code":22507,"Name":"Lively","State":"VA","Locality":"Lancaster"},"coordinates":[8594,4326]},{"type":"Point","properties":{"Zip Code":22508,"Name":"Locust Grove","State":"VA","Locality":"Orange"},"coordinates":[7049,6305]},{"type":"Point","properties":{"Zip Code":22509,"Name":"Loretto","State":"VA","Locality":"Essex"},"coordinates":[8038,5335]},{"type":"Point","properties":{"Zip Code":22511,"Name":"Lottsburg","State":"VA","Locality":"Northumberland"},"coordinates":[8609,5042]},{"type":"Point","properties":{"Zip Code":22513,"Name":"Merry Point","State":"VA","Locality":"Lancaster"},"coordinates":[8633,4170]},{"type":"Point","properties":{"Zip Code":22514,"Name":"Milford","State":"VA","Locality":"Caroline"},"coordinates":[7605,5136]},{"type":"Point","properties":{"Zip Code":22517,"Name":"Mollusk","State":"VA","Locality":"Lancaster"},"coordinates":[8564,4157]},{"type":"Point","properties":{"Zip Code":22520,"Name":"Montross","State":"VA","Locality":"Westmoreland"},"coordinates":[8264,5507]},{"type":"Point","properties":{"Zip Code":22523,"Name":"Morattico","State":"VA","Locality":"Lancaster"},"coordinates":[8452,4367]},{"type":"Point","properties":{"Zip Code":22524,"Name":"Mount Holly","State":"VA","Locality":"Westmoreland"},"coordinates":[8343,5439]},{"type":"Point","properties":{"Zip Code":22526,"Name":"Ninde","State":"VA","Locality":"King George"},"coordinates":[7927,6077]},{"type":"Point","properties":{"Zip Code":22528,"Name":"Nuttsville","State":"VA","Locality":"Lancaster"},"coordinates":[8549,4382]},{"type":"Point","properties":{"Zip Code":22529,"Name":"Oldhams","State":"VA","Locality":"Westmoreland"},"coordinates":[8404,5124]},{"type":"Point","properties":{"Zip Code":22530,"Name":"Ophelia","State":"VA","Locality":"Northumberland"},"coordinates":[8877,4796]},{"type":"Point","properties":{"Zip Code":22534,"Name":"Partlow","State":"VA","Locality":"Spotsylvania"},"coordinates":[7187,5343]},{"type":"Point","properties":{"Zip Code":22535,"Name":"Port Royal","State":"VA","Locality":"Caroline"},"coordinates":[7771,5690]},{"type":"Point","properties":{"Zip Code":22538,"Name":"Rappahannock Academy","State":"VA","Locality":"Caroline"},"coordinates":[7643,5831]},{"type":"Point","properties":{"Zip Code":22539,"Name":"Reedville","State":"VA","Locality":"Northumberland"},"coordinates":[8878,4608]},{"type":"Point","properties":{"Zip Code":22542,"Name":"Rhoadesville","State":"VA","Locality":"Orange"},"coordinates":[6862,6131]},{"type":"Point","properties":{"Zip Code":22544,"Name":"Rollins Fork","State":"VA","Locality":"King George"},"coordinates":[7920,5771]},{"type":"Point","properties":{"Zip Code":22545,"Name":"Ruby","State":"VA","Locality":"Stafford"},"coordinates":[7363,6904]},{"type":"Point","properties":{"Zip Code":22546,"Name":"Ruther Glen","State":"VA","Locality":"Caroline"},"coordinates":[7417,4920]},{"type":"Point","properties":{"Zip Code":22547,"Name":"Sealston","State":"VA","Locality":"King George"},"coordinates":[7588,6043]},{"type":"Point","properties":{"Zip Code":22548,"Name":"Sharps","State":"VA","Locality":"Richmond"},"coordinates":[8364,4490]},{"type":"Point","properties":{"Zip Code":22552,"Name":"Sparta","State":"VA","Locality":"Caroline"},"coordinates":[7713,5086]},{"type":"Point","properties":{"Zip Code":22553,"Name":"Spotsylvania","State":"VA","Locality":"Spotsylvania"},"coordinates":[7199,5823]},{"type":"Point","properties":{"Zip Code":22554,"Name":"Stafford","State":"VA","Locality":"Stafford"},"coordinates":[7467,6743]},{"type":"Point","properties":{"Zip Code":22555,"Name":"Stafford","State":"VA","Locality":"Stafford"},"coordinates":[7494,6612]},{"type":"Point","properties":{"Zip Code":22556,"Name":"Stafford","State":"VA","Locality":"Stafford"},"coordinates":[7403,6838]},{"type":"Point","properties":{"Zip Code":22558,"Name":"Stratford","State":"VA","Locality":"Westmoreland"},"coordinates":[8229,5543]},{"type":"Point","properties":{"Zip Code":22560,"Name":"Tappahannock","State":"VA","Locality":"Essex"},"coordinates":[8104,4812]},{"type":"Point","properties":{"Zip Code":22565,"Name":"Thornburg","State":"VA","Locality":"Spotsylvania"},"coordinates":[7355,5588]},{"type":"Point","properties":{"Zip Code":22567,"Name":"Unionville","State":"VA","Locality":"Orange"},"coordinates":[6867,5961]},{"type":"Point","properties":{"Zip Code":22570,"Name":"Village","State":"VA","Locality":"Richmond"},"coordinates":[8483,4934]},{"type":"Point","properties":{"Zip Code":22572,"Name":"Warsaw","State":"VA","Locality":"Richmond"},"coordinates":[8321,4938]},{"type":"Point","properties":{"Zip Code":22576,"Name":"Weems","State":"VA","Locality":"Lancaster"},"coordinates":[8696,3996]},{"type":"Point","properties":{"Zip Code":22577,"Name":"Sandy Point","State":"VA","Locality":"Westmoreland"},"coordinates":[8570,5330]},{"type":"Point","properties":{"Zip Code":22578,"Name":"White Stone","State":"VA","Locality":"Lancaster"},"coordinates":[8773,3864]},{"type":"Point","properties":{"Zip Code":22579,"Name":"Wicomico Church","State":"VA","Locality":"Northumberland"},"coordinates":[8788,4331]},{"type":"Point","properties":{"Zip Code":22580,"Name":"Woodford","State":"VA","Locality":"Caroline"},"coordinates":[7456,5416]},{"type":"Point","properties":{"Zip Code":22581,"Name":"Zacata","State":"VA","Locality":"Westmoreland"},"coordinates":[8264,5541]},{"type":"Point","properties":{"Zip Code":22601,"Name":"Winchester","State":"VA","Locality":"Winchester City"},"coordinates":[6543,9323]},{"type":"Point","properties":{"Zip Code":22602,"Name":"Winchester","State":"VA","Locality":"Frederick"},"coordinates":[6483,9225]},{"type":"Point","properties":{"Zip Code":22603,"Name":"Winchester","State":"VA","Locality":"Frederick"},"coordinates":[6531,9525]},{"type":"Point","properties":{"Zip Code":22604,"Name":"Winchester","State":"VA","Locality":"Winchester City"},"coordinates":[6579,9322]},{"type":"Point","properties":{"Zip Code":22610,"Name":"Bentonville","State":"VA","Locality":"Warren"},"coordinates":[6424,8051]},{"type":"Point","properties":{"Zip Code":22611,"Name":"Berryville","State":"VA","Locality":"Clarke"},"coordinates":[6806,9208]},{"type":"Point","properties":{"Zip Code":22620,"Name":"Boyce","State":"VA","Locality":"Clarke"},"coordinates":[6742,8912]},{"type":"Point","properties":{"Zip Code":22622,"Name":"Brucetown","State":"VA","Locality":"Frederick"},"coordinates":[6685,9567]},{"type":"Point","properties":{"Zip Code":22623,"Name":"Chester Gap","State":"VA","Locality":"Rappahannock"},"coordinates":[6601,8143]},{"type":"Point","properties":{"Zip Code":22624,"Name":"Clear Brook","State":"VA","Locality":"Frederick"},"coordinates":[6646,9606]},{"type":"Point","properties":{"Zip Code":22625,"Name":"Cross Junction","State":"VA","Locality":"Frederick"},"coordinates":[6399,9999]},{"type":"Point","properties":{"Zip Code":22626,"Name":"Fishers Hill","State":"VA","Locality":"Shenandoah"},"coordinates":[6270,8595]},{"type":"Point","properties":{"Zip Code":22627,"Name":"Flint Hill","State":"VA","Locality":"Rappahannock"},"coordinates":[6675,7719]},{"type":"Point","properties":{"Zip Code":22630,"Name":"Front Royal","State":"VA","Locality":"Warren"},"coordinates":[6547,8404]},{"type":"Point","properties":{"Zip Code":22637,"Name":"Gore","State":"VA","Locality":"Frederick"},"coordinates":[6347,9688]},{"type":"Point","properties":{"Zip Code":22639,"Name":"Hume","State":"VA","Locality":"Fauquier"},"coordinates":[6774,8051]},{"type":"Point","properties":{"Zip Code":22640,"Name":"Huntly","State":"VA","Locality":"Rappahannock"},"coordinates":[6607,8002]},{"type":"Point","properties":{"Zip Code":22641,"Name":"Strasburg","State":"VA","Locality":"Shenandoah"},"coordinates":[6325,8864]},{"type":"Point","properties":{"Zip Code":22642,"Name":"Linden","State":"VA","Locality":"Warren"},"coordinates":[6709,8242]},{"type":"Point","properties":{"Zip Code":22643,"Name":"Markham","State":"VA","Locality":"Fauquier"},"coordinates":[6774,8416]},{"type":"Point","properties":{"Zip Code":22644,"Name":"Maurertown","State":"VA","Locality":"Shenandoah"},"coordinates":[6195,8465]},{"type":"Point","properties":{"Zip Code":22645,"Name":"Middletown","State":"VA","Locality":"Frederick"},"coordinates":[6421,8794]},{"type":"Point","properties":{"Zip Code":22646,"Name":"Millwood","State":"VA","Locality":"Clarke"},"coordinates":[6721,8910]},{"type":"Point","properties":{"Zip Code":22649,"Name":"Middletown","State":"VA","Locality":"Warren"},"coordinates":[6461,8667]},{"type":"Point","properties":{"Zip Code":22650,"Name":"Rileyville","State":"VA","Locality":"Page"},"coordinates":[6291,7799]},{"type":"Point","properties":{"Zip Code":22652,"Name":"Fort Valley","State":"VA","Locality":"Shenandoah"},"coordinates":[6226,8052]},{"type":"Point","properties":{"Zip Code":22654,"Name":"Star Tannery","State":"VA","Locality":"Frederick"},"coordinates":[6233,8986]},{"type":"Point","properties":{"Zip Code":22655,"Name":"Stephens City","State":"VA","Locality":"Frederick"},"coordinates":[6533,8960]},{"type":"Point","properties":{"Zip Code":22656,"Name":"Stephenson","State":"VA","Locality":"Frederick"},"coordinates":[6652,9364]},{"type":"Point","properties":{"Zip Code":22657,"Name":"Strasburg","State":"VA","Locality":"Shenandoah"},"coordinates":[6351,8623]},{"type":"Point","properties":{"Zip Code":22660,"Name":"Toms Brook","State":"VA","Locality":"Shenandoah"},"coordinates":[6271,8558]},{"type":"Point","properties":{"Zip Code":22663,"Name":"White Post","State":"VA","Locality":"Clarke"},"coordinates":[6632,8870]},{"type":"Point","properties":{"Zip Code":22664,"Name":"Woodstock","State":"VA","Locality":"Shenandoah"},"coordinates":[6126,8263]},{"type":"Point","properties":{"Zip Code":22701,"Name":"Culpeper","State":"VA","Locality":"Culpeper"},"coordinates":[6762,6823]},{"type":"Point","properties":{"Zip Code":22709,"Name":"Aroda","State":"VA","Locality":"Madison"},"coordinates":[6477,6271]},{"type":"Point","properties":{"Zip Code":22711,"Name":"Banco","State":"VA","Locality":"Madison"},"coordinates":[6421,6716]},{"type":"Point","properties":{"Zip Code":22712,"Name":"Bealeton","State":"VA","Locality":"Fauquier"},"coordinates":[7013,7137]},{"type":"Point","properties":{"Zip Code":22713,"Name":"Boston","State":"VA","Locality":"Culpeper"},"coordinates":[6592,7025]},{"type":"Point","properties":{"Zip Code":22714,"Name":"Brandy Station","State":"VA","Locality":"Culpeper"},"coordinates":[6886,6929]},{"type":"Point","properties":{"Zip Code":22715,"Name":"Brightwood","State":"VA","Locality":"Madison"},"coordinates":[6559,6575]},{"type":"Point","properties":{"Zip Code":22716,"Name":"Castleton","State":"VA","Locality":"Rappahannock"},"coordinates":[6619,7256]},{"type":"Point","properties":{"Zip Code":22718,"Name":"Elkwood","State":"VA","Locality":"Culpeper"},"coordinates":[6992,6766]},{"type":"Point","properties":{"Zip Code":22719,"Name":"Etlan","State":"VA","Locality":"Madison"},"coordinates":[6443,6923]},{"type":"Point","properties":{"Zip Code":22720,"Name":"Goldvein","State":"VA","Locality":"Fauquier"},"coordinates":[7211,6849]},{"type":"Point","properties":{"Zip Code":22721,"Name":"Graves Mill","State":"VA","Locality":"Madison"},"coordinates":[6315,6615]},{"type":"Point","properties":{"Zip Code":22722,"Name":"Haywood","State":"VA","Locality":"Madison"},"coordinates":[6546,6778]},{"type":"Point","properties":{"Zip Code":22723,"Name":"Hood","State":"VA","Locality":"Madison"},"coordinates":[6296,6374]},{"type":"Point","properties":{"Zip Code":22724,"Name":"Jeffersonton","State":"VA","Locality":"Culpeper"},"coordinates":[6882,7335]},{"type":"Point","properties":{"Zip Code":22725,"Name":"Leon","State":"VA","Locality":"Madison"},"coordinates":[6577,6738]},{"type":"Point","properties":{"Zip Code":22726,"Name":"Lignum","State":"VA","Locality":"Culpeper"},"coordinates":[6976,6519]},{"type":"Point","properties":{"Zip Code":22727,"Name":"Madison","State":"VA","Locality":"Madison"},"coordinates":[6403,6480]},{"type":"Point","properties":{"Zip Code":22728,"Name":"Midland","State":"VA","Locality":"Fauquier"},"coordinates":[7121,7128]},{"type":"Point","properties":{"Zip Code":22729,"Name":"Mitchells","State":"VA","Locality":"Culpeper"},"coordinates":[6754,6444]},{"type":"Point","properties":{"Zip Code":22730,"Name":"Oakpark","State":"VA","Locality":"Madison"},"coordinates":[6570,6416]},{"type":"Point","properties":{"Zip Code":22731,"Name":"Pratts","State":"VA","Locality":"Madison"},"coordinates":[6433,6354]},{"type":"Point","properties":{"Zip Code":22732,"Name":"Radiant","State":"VA","Locality":"Madison"},"coordinates":[6546,6260]},{"type":"Point","properties":{"Zip Code":22733,"Name":"Rapidan","State":"VA","Locality":"Culpeper"},"coordinates":[6709,6319]},{"type":"Point","properties":{"Zip Code":22734,"Name":"Remington","State":"VA","Locality":"Fauquier"},"coordinates":[7061,7014]},{"type":"Point","properties":{"Zip Code":22735,"Name":"Reva","State":"VA","Locality":"Madison"},"coordinates":[6574,6749]},{"type":"Point","properties":{"Zip Code":22736,"Name":"Richardsville","State":"VA","Locality":"Culpeper"},"coordinates":[7112,6508]},{"type":"Point","properties":{"Zip Code":22737,"Name":"Rixeyville","State":"VA","Locality":"Culpeper"},"coordinates":[6733,7192]},{"type":"Point","properties":{"Zip Code":22738,"Name":"Rochelle","State":"VA","Locality":"Madison"},"coordinates":[6441,6089]},{"type":"Point","properties":{"Zip Code":22739,"Name":"Somerville","State":"VA","Locality":"Fauquier"},"coordinates":[7247,6967]},{"type":"Point","properties":{"Zip Code":22740,"Name":"Sperryville","State":"VA","Locality":"Rappahannock"},"coordinates":[6464,7316]},{"type":"Point","properties":{"Zip Code":22741,"Name":"Stevensburg","State":"VA","Locality":"Culpeper"},"coordinates":[6910,6691]},{"type":"Point","properties":{"Zip Code":22742,"Name":"Sumerduck","State":"VA","Locality":"Fauquier"},"coordinates":[7131,6774]},{"type":"Point","properties":{"Zip Code":22743,"Name":"Syria","State":"VA","Locality":"Madison"},"coordinates":[6370,6880]},{"type":"Point","properties":{"Zip Code":22746,"Name":"Viewtown","State":"VA","Locality":"Culpeper"},"coordinates":[6736,7407]},{"type":"Point","properties":{"Zip Code":22747,"Name":"Washington","State":"VA","Locality":"Rappahannock"},"coordinates":[6575,7627]},{"type":"Point","properties":{"Zip Code":22748,"Name":"Wolftown","State":"VA","Locality":"Madison"},"coordinates":[6340,6377]},{"type":"Point","properties":{"Zip Code":22749,"Name":"Woodville","State":"VA","Locality":"Rappahannock"},"coordinates":[6554,7415]},{"type":"Point","properties":{"Zip Code":22801,"Name":"Harrisonburg","State":"VA","Locality":"Harrisonburg City"},"coordinates":[5696,6708]},{"type":"Point","properties":{"Zip Code":22802,"Name":"Harrisonburg","State":"VA","Locality":"Harrisonburg City"},"coordinates":[5709,6812]},{"type":"Point","properties":{"Zip Code":22803,"Name":"Harrisonburg","State":"VA","Locality":"Harrisonburg City"},"coordinates":[5612,6909]},{"type":"Point","properties":{"Zip Code":22807,"Name":"Harrisonburg","State":"VA","Locality":"Harrisonburg City"},"coordinates":[5701,6656]},{"type":"Point","properties":{"Zip Code":22810,"Name":"Basye","State":"VA","Locality":"Shenandoah"},"coordinates":[5824,7939]},{"type":"Point","properties":{"Zip Code":22811,"Name":"Bergton","State":"VA","Locality":"Rockingham"},"coordinates":[5579,7928]},{"type":"Point","properties":{"Zip Code":22812,"Name":"Bridgewater","State":"VA","Locality":"Rockingham"},"coordinates":[5546,6485]},{"type":"Point","properties":{"Zip Code":22815,"Name":"Broadway","State":"VA","Locality":"Rockingham"},"coordinates":[5799,7274]},{"type":"Point","properties":{"Zip Code":22820,"Name":"Criders","State":"VA","Locality":"Rockingham"},"coordinates":[5541,7776]},{"type":"Point","properties":{"Zip Code":22821,"Name":"Dayton","State":"VA","Locality":"Rockingham"},"coordinates":[5546,6655]},{"type":"Point","properties":{"Zip Code":22824,"Name":"Edinburg","State":"VA","Locality":"Shenandoah"},"coordinates":[6029,8108]},{"type":"Point","properties":{"Zip Code":22827,"Name":"Elkton","State":"VA","Locality":"Rockingham"},"coordinates":[5990,6544]},{"type":"Point","properties":{"Zip Code":22830,"Name":"Fulks Run","State":"VA","Locality":"Rockingham"},"coordinates":[5617,7365]},{"type":"Point","properties":{"Zip Code":22831,"Name":"Hinton","State":"VA","Locality":"Rockingham"},"coordinates":[5526,6831]},{"type":"Point","properties":{"Zip Code":22832,"Name":"Keezletown","State":"VA","Locality":"Rockingham"},"coordinates":[5812,6675]},{"type":"Point","properties":{"Zip Code":22833,"Name":"Lacey Spring","State":"VA","Locality":"Rockingham"},"coordinates":[5825,7036]},{"type":"Point","properties":{"Zip Code":22834,"Name":"Linville","State":"VA","Locality":"Rockingham"},"coordinates":[5666,7087]},{"type":"Point","properties":{"Zip Code":22835,"Name":"Luray","State":"VA","Locality":"Page"},"coordinates":[6202,7439]},{"type":"Point","properties":{"Zip Code":22840,"Name":"Mc Gaheysville","State":"VA","Locality":"Rockingham"},"coordinates":[5856,6433]},{"type":"Point","properties":{"Zip Code":22841,"Name":"Mount Crawford","State":"VA","Locality":"Rockingham"},"coordinates":[5666,6342]},{"type":"Point","properties":{"Zip Code":22842,"Name":"Mount Jackson","State":"VA","Locality":"Shenandoah"},"coordinates":[5936,7844]},{"type":"Point","properties":{"Zip Code":22843,"Name":"Mount Solon","State":"VA","Locality":"Augusta"},"coordinates":[5412,6296]},{"type":"Point","properties":{"Zip Code":22844,"Name":"New Market","State":"VA","Locality":"Shenandoah"},"coordinates":[5942,7459]},{"type":"Point","properties":{"Zip Code":22845,"Name":"Orkney Springs","State":"VA","Locality":"Shenandoah"},"coordinates":[5770,7932]},{"type":"Point","properties":{"Zip Code":22846,"Name":"Penn Laird","State":"VA","Locality":"Rockingham"},"coordinates":[5786,6427]},{"type":"Point","properties":{"Zip Code":22847,"Name":"Quicksburg","State":"VA","Locality":"Shenandoah"},"coordinates":[5908,7651]},{"type":"Point","properties":{"Zip Code":22848,"Name":"Pleasant Valley","State":"VA","Locality":"Rockingham"},"coordinates":[5664,6481]},{"type":"Point","properties":{"Zip Code":22849,"Name":"Shenandoah","State":"VA","Locality":"Page"},"coordinates":[6019,6893]},{"type":"Point","properties":{"Zip Code":22850,"Name":"Singers Glen","State":"VA","Locality":"Rockingham"},"coordinates":[5644,7076]},{"type":"Point","properties":{"Zip Code":22851,"Name":"Stanley","State":"VA","Locality":"Page"},"coordinates":[6141,7124]},{"type":"Point","properties":{"Zip Code":22853,"Name":"Timberville","State":"VA","Locality":"Rockingham"},"coordinates":[5819,7413]},{"type":"Point","properties":{"Zip Code":22901,"Name":"Charlottesville","State":"VA","Locality":"Albemarle"},"coordinates":[6164,5310]},{"type":"Point","properties":{"Zip Code":22902,"Name":"Charlottesville","State":"VA","Locality":"Charlottesville City"},"coordinates":[6180,5102]},{"type":"Point","properties":{"Zip Code":22903,"Name":"Charlottesville","State":"VA","Locality":"Charlottesville City"},"coordinates":[6146,5231]},{"type":"Point","properties":{"Zip Code":22904,"Name":"Charlottesville","State":"VA","Locality":"Charlottesville City"},"coordinates":[6134,5235]},{"type":"Point","properties":{"Zip Code":22905,"Name":"Charlottesville","State":"VA","Locality":"Charlottesville City"},"coordinates":[6151,5299]},{"type":"Point","properties":{"Zip Code":22906,"Name":"Charlottesville","State":"VA","Locality":"Charlottesville City"},"coordinates":[6189,5429]},{"type":"Point","properties":{"Zip Code":22907,"Name":"Charlottesville","State":"VA","Locality":"Charlottesville City"},"coordinates":[6162,5319]},{"type":"Point","properties":{"Zip Code":22908,"Name":"Charlottesville","State":"VA","Locality":"Charlottesville City"},"coordinates":[6181,5219]},{"type":"Point","properties":{"Zip Code":22909,"Name":"Charlottesville","State":"VA","Locality":"Albemarle"},"coordinates":[6186,5273]},{"type":"Point","properties":{"Zip Code":22910,"Name":"Charlottesville","State":"VA","Locality":"Charlottesville City"},"coordinates":[6181,5219]},{"type":"Point","properties":{"Zip Code":22911,"Name":"Charlottesville","State":"VA","Locality":"Albemarle"},"coordinates":[6247,5450]},{"type":"Point","properties":{"Zip Code":22920,"Name":"Afton","State":"VA","Locality":"Nelson"},"coordinates":[5733,4983]},{"type":"Point","properties":{"Zip Code":22922,"Name":"Arrington","State":"VA","Locality":"Nelson"},"coordinates":[5638,4007]},{"type":"Point","properties":{"Zip Code":22923,"Name":"Barboursville","State":"VA","Locality":"Orange"},"coordinates":[6383,5824]},{"type":"Point","properties":{"Zip Code":22924,"Name":"Batesville","State":"VA","Locality":"Albemarle"},"coordinates":[5879,5099]},{"type":"Point","properties":{"Zip Code":22931,"Name":"Covesville","State":"VA","Locality":"Albemarle"},"coordinates":[5891,4789]},{"type":"Point","properties":{"Zip Code":22932,"Name":"Crozet","State":"VA","Locality":"Albemarle"},"coordinates":[5901,5404]},{"type":"Point","properties":{"Zip Code":22935,"Name":"Dyke","State":"VA","Locality":"Greene"},"coordinates":[6086,6014]},{"type":"Point","properties":{"Zip Code":22936,"Name":"Earlysville","State":"VA","Locality":"Albemarle"},"coordinates":[6163,5675]},{"type":"Point","properties":{"Zip Code":22937,"Name":"Esmont","State":"VA","Locality":"Albemarle"},"coordinates":[6017,4450]},{"type":"Point","properties":{"Zip Code":22938,"Name":"Faber","State":"VA","Locality":"Nelson"},"coordinates":[5837,4574]},{"type":"Point","properties":{"Zip Code":22939,"Name":"Fishersville","State":"VA","Locality":"Augusta"},"coordinates":[5575,5461]},{"type":"Point","properties":{"Zip Code":22940,"Name":"Free Union","State":"VA","Locality":"Albemarle"},"coordinates":[6035,5847]},{"type":"Point","properties":{"Zip Code":22942,"Name":"Gordonsville","State":"VA","Locality":"Orange"},"coordinates":[6527,5496]},{"type":"Point","properties":{"Zip Code":22943,"Name":"Greenwood","State":"VA","Locality":"Albemarle"},"coordinates":[5804,5263]},{"type":"Point","properties":{"Zip Code":22945,"Name":"Ivy","State":"VA","Locality":"Albemarle"},"coordinates":[6034,5315]},{"type":"Point","properties":{"Zip Code":22946,"Name":"Keene","State":"VA","Locality":"Albemarle"},"coordinates":[6077,4871]},{"type":"Point","properties":{"Zip Code":22947,"Name":"Keswick","State":"VA","Locality":"Albemarle"},"coordinates":[6349,5120]},{"type":"Point","properties":{"Zip Code":22948,"Name":"Locust Dale","State":"VA","Locality":"Madison"},"coordinates":[6643,6301]},{"type":"Point","properties":{"Zip Code":22949,"Name":"Lovingston","State":"VA","Locality":"Nelson"},"coordinates":[5700,4379]},{"type":"Point","properties":{"Zip Code":22952,"Name":"Lyndhurst","State":"VA","Locality":"Augusta"},"coordinates":[5598,5108]},{"type":"Point","properties":{"Zip Code":22957,"Name":"Montpelier Station","State":"VA","Locality":"Orange"},"coordinates":[6550,5925]},{"type":"Point","properties":{"Zip Code":22958,"Name":"Nellysford","State":"VA","Locality":"Nelson"},"coordinates":[5668,4620]},{"type":"Point","properties":{"Zip Code":22959,"Name":"North Garden","State":"VA","Locality":"Albemarle"},"coordinates":[5912,4980]},{"type":"Point","properties":{"Zip Code":22960,"Name":"Orange","State":"VA","Locality":"Orange"},"coordinates":[6655,5945]},{"type":"Point","properties":{"Zip Code":22963,"Name":"Palmyra","State":"VA","Locality":"Fluvanna"},"coordinates":[6401,4696]},{"type":"Point","properties":{"Zip Code":22964,"Name":"Piney River","State":"VA","Locality":"Nelson"},"coordinates":[5513,4107]},{"type":"Point","properties":{"Zip Code":22965,"Name":"Quinque","State":"VA","Locality":"Greene"},"coordinates":[6278,6002]},{"type":"Point","properties":{"Zip Code":22967,"Name":"Roseland","State":"VA","Locality":"Nelson"},"coordinates":[5573,4433]},{"type":"Point","properties":{"Zip Code":22968,"Name":"Ruckersville","State":"VA","Locality":"Greene"},"coordinates":[6287,5945]},{"type":"Point","properties":{"Zip Code":22969,"Name":"Schuyler","State":"VA","Locality":"Nelson"},"coordinates":[5916,4397]},{"type":"Point","properties":{"Zip Code":22971,"Name":"Shipman","State":"VA","Locality":"Nelson"},"coordinates":[5754,4221]},{"type":"Point","properties":{"Zip Code":22972,"Name":"Somerset","State":"VA","Locality":"Orange"},"coordinates":[6460,5842]},{"type":"Point","properties":{"Zip Code":22973,"Name":"Stanardsville","State":"VA","Locality":"Greene"},"coordinates":[6189,6189]},{"type":"Point","properties":{"Zip Code":22974,"Name":"Troy","State":"VA","Locality":"Fluvanna"},"coordinates":[6456,4986]},{"type":"Point","properties":{"Zip Code":22976,"Name":"Tyro","State":"VA","Locality":"Nelson"},"coordinates":[5532,4481]},{"type":"Point","properties":{"Zip Code":22980,"Name":"Waynesboro","State":"VA","Locality":"Waynesboro City"},"coordinates":[5657,5390]},{"type":"Point","properties":{"Zip Code":22987,"Name":"White Hall","State":"VA","Locality":"Albemarle"},"coordinates":[5954,5533]},{"type":"Point","properties":{"Zip Code":22989,"Name":"Woodberry Forest","State":"VA","Locality":"Madison"},"coordinates":[6702,5874]},{"type":"Point","properties":{"Zip Code":23001,"Name":"Achilles","State":"VA","Locality":"Gloucester"},"coordinates":[8685,2560]},{"type":"Point","properties":{"Zip Code":23002,"Name":"Amelia Court House","State":"VA","Locality":"Amelia"},"coordinates":[6823,2809]},{"type":"Point","properties":{"Zip Code":23003,"Name":"Ark","State":"VA","Locality":"Gloucester"},"coordinates":[8518,3122]},{"type":"Point","properties":{"Zip Code":23004,"Name":"Arvonia","State":"VA","Locality":"Buckingham"},"coordinates":[6289,3949]},{"type":"Point","properties":{"Zip Code":23005,"Name":"Ashland","State":"VA","Locality":"Hanover"},"coordinates":[7409,4191]},{"type":"Point","properties":{"Zip Code":23009,"Name":"Aylett","State":"VA","Locality":"King William"},"coordinates":[7765,4484]},{"type":"Point","properties":{"Zip Code":23011,"Name":"Barhamsville","State":"VA","Locality":"New Kent"},"coordinates":[8203,3205]},{"type":"Point","properties":{"Zip Code":23014,"Name":"Beaumont","State":"VA","Locality":"Goochland"},"coordinates":[6735,4268]},{"type":"Point","properties":{"Zip Code":23015,"Name":"Beaverdam","State":"VA","Locality":"Hanover"},"coordinates":[7221,4774]},{"type":"Point","properties":{"Zip Code":23018,"Name":"Bena","State":"VA","Locality":"Gloucester"},"coordinates":[8666,2528]},{"type":"Point","properties":{"Zip Code":23021,"Name":"Bohannon","State":"VA","Locality":"Mathews"},"coordinates":[8782,2952]},{"type":"Point","properties":{"Zip Code":23022,"Name":"Bremo Bluff","State":"VA","Locality":"Fluvanna"},"coordinates":[6439,4211]},{"type":"Point","properties":{"Zip Code":23023,"Name":"Bruington","State":"VA","Locality":"King And Queen"},"coordinates":[8070,4335]},{"type":"Point","properties":{"Zip Code":23024,"Name":"Bumpass","State":"VA","Locality":"Louisa"},"coordinates":[7017,4755]},{"type":"Point","properties":{"Zip Code":23025,"Name":"Cardinal","State":"VA","Locality":"Mathews"},"coordinates":[8742,3083]},{"type":"Point","properties":{"Zip Code":23027,"Name":"Cartersville","State":"VA","Locality":"Cumberland"},"coordinates":[6609,3842]},{"type":"Point","properties":{"Zip Code":23030,"Name":"Charles City","State":"VA","Locality":"Charles City"},"coordinates":[7864,2866]},{"type":"Point","properties":{"Zip Code":23031,"Name":"Christchurch","State":"VA","Locality":"Middlesex"},"coordinates":[8569,3713]},{"type":"Point","properties":{"Zip Code":23032,"Name":"Church View","State":"VA","Locality":"Middlesex"},"coordinates":[8411,3962]},{"type":"Point","properties":{"Zip Code":23035,"Name":"Cobbs Creek","State":"VA","Locality":"Mathews"},"coordinates":[8774,3338]},{"type":"Point","properties":{"Zip Code":23038,"Name":"Columbia","State":"VA","Locality":"Goochland"},"coordinates":[6547,4103]},{"type":"Point","properties":{"Zip Code":23039,"Name":"Crozier","State":"VA","Locality":"Goochland"},"coordinates":[7021,3950]},{"type":"Point","properties":{"Zip Code":23040,"Name":"Cumberland","State":"VA","Locality":"Cumberland"},"coordinates":[6450,3348]},{"type":"Point","properties":{"Zip Code":23043,"Name":"Deltaville","State":"VA","Locality":"Middlesex"},"coordinates":[8800,3536]},{"type":"Point","properties":{"Zip Code":23045,"Name":"Diggs","State":"VA","Locality":"Mathews"},"coordinates":[8873,3115]},{"type":"Point","properties":{"Zip Code":23047,"Name":"Doswell","State":"VA","Locality":"Hanover"},"coordinates":[7367,4553]},{"type":"Point","properties":{"Zip Code":23050,"Name":"Dutton","State":"VA","Locality":"Gloucester"},"coordinates":[8690,3294]},{"type":"Point","properties":{"Zip Code":23055,"Name":"Fork Union","State":"VA","Locality":"Fluvanna"},"coordinates":[6478,4304]},{"type":"Point","properties":{"Zip Code":23056,"Name":"Foster","State":"VA","Locality":"Mathews"},"coordinates":[8753,3173]},{"type":"Point","properties":{"Zip Code":23058,"Name":"Glen Allen","State":"VA","Locality":"Henrico"},"coordinates":[7374,3929]},{"type":"Point","properties":{"Zip Code":23059,"Name":"Glen Allen","State":"VA","Locality":"Henrico"},"coordinates":[7320,4001]},{"type":"Point","properties":{"Zip Code":23060,"Name":"Glen Allen","State":"VA","Locality":"Henrico"},"coordinates":[7340,3919]},{"type":"Point","properties":{"Zip Code":23061,"Name":"Gloucester","State":"VA","Locality":"Gloucester"},"coordinates":[8546,3054]},{"type":"Point","properties":{"Zip Code":23062,"Name":"Gloucester Point","State":"VA","Locality":"Gloucester"},"coordinates":[8617,2484]},{"type":"Point","properties":{"Zip Code":23063,"Name":"Goochland","State":"VA","Locality":"Goochland"},"coordinates":[6754,4295]},{"type":"Point","properties":{"Zip Code":23064,"Name":"Grimstead","State":"VA","Locality":"Mathews"},"coordinates":[8855,3342]},{"type":"Point","properties":{"Zip Code":23065,"Name":"Gum Spring","State":"VA","Locality":"Goochland"},"coordinates":[6882,4471]},{"type":"Point","properties":{"Zip Code":23066,"Name":"Gwynn","State":"VA","Locality":"Mathews"},"coordinates":[8869,3343]},{"type":"Point","properties":{"Zip Code":23067,"Name":"Hadensville","State":"VA","Locality":"Goochland"},"coordinates":[6768,4495]},{"type":"Point","properties":{"Zip Code":23068,"Name":"Hallieford","State":"VA","Locality":"Mathews"},"coordinates":[8808,3318]},{"type":"Point","properties":{"Zip Code":23069,"Name":"Hanover","State":"VA","Locality":"Hanover"},"coordinates":[7601,4299]},{"type":"Point","properties":{"Zip Code":23070,"Name":"Hardyville","State":"VA","Locality":"Middlesex"},"coordinates":[8711,3511]},{"type":"Point","properties":{"Zip Code":23071,"Name":"Hartfield","State":"VA","Locality":"Middlesex"},"coordinates":[8640,3552]},{"type":"Point","properties":{"Zip Code":23072,"Name":"Hayes","State":"VA","Locality":"Gloucester"},"coordinates":[8623,2601]},{"type":"Point","properties":{"Zip Code":23075,"Name":"Highland Springs","State":"VA","Locality":"Henrico"},"coordinates":[7600,3496]},{"type":"Point","properties":{"Zip Code":23076,"Name":"Hudgins","State":"VA","Locality":"Mathews"},"coordinates":[8825,3237]},{"type":"Point","properties":{"Zip Code":23079,"Name":"Jamaica","State":"VA","Locality":"Middlesex"},"coordinates":[8379,4157]},{"type":"Point","properties":{"Zip Code":23081,"Name":"Jamestown","State":"VA","Locality":"James City"},"coordinates":[8274,2305]},{"type":"Point","properties":{"Zip Code":23083,"Name":"Jetersville","State":"VA","Locality":"Amelia"},"coordinates":[6640,2694]},{"type":"Point","properties":{"Zip Code":23084,"Name":"Kents Store","State":"VA","Locality":"Fluvanna"},"coordinates":[6619,4740]},{"type":"Point","properties":{"Zip Code":23085,"Name":"King And Queen Court House","State":"VA","Locality":"King And Queen"},"coordinates":[8165,4113]},{"type":"Point","properties":{"Zip Code":23086,"Name":"King William","State":"VA","Locality":"King William"},"coordinates":[7874,4122]},{"type":"Point","properties":{"Zip Code":23089,"Name":"Lanexa","State":"VA","Locality":"New Kent"},"coordinates":[8116,3055]},{"type":"Point","properties":{"Zip Code":23090,"Name":"Lightfoot","State":"VA","Locality":"York"},"coordinates":[8298,2775]},{"type":"Point","properties":{"Zip Code":23091,"Name":"Little Plymouth","State":"VA","Locality":"King And Queen"},"coordinates":[8211,3924]},{"type":"Point","properties":{"Zip Code":23092,"Name":"Locust Hill","State":"VA","Locality":"Middlesex"},"coordinates":[8609,3690]},{"type":"Point","properties":{"Zip Code":23093,"Name":"Louisa","State":"VA","Locality":"Louisa"},"coordinates":[6725,5162]},{"type":"Point","properties":{"Zip Code":23101,"Name":"Macon","State":"VA","Locality":"Powhatan"},"coordinates":[6814,3418]},{"type":"Point","properties":{"Zip Code":23102,"Name":"Maidens","State":"VA","Locality":"Goochland"},"coordinates":[6926,4062]},{"type":"Point","properties":{"Zip Code":23103,"Name":"Manakin Sabot","State":"VA","Locality":"Goochland"},"coordinates":[7127,3831]},{"type":"Point","properties":{"Zip Code":23105,"Name":"Mannboro","State":"VA","Locality":"Amelia"},"coordinates":[6984,2459]},{"type":"Point","properties":{"Zip Code":23106,"Name":"Manquin","State":"VA","Locality":"King William"},"coordinates":[7768,4116]},{"type":"Point","properties":{"Zip Code":23107,"Name":"Maryus","State":"VA","Locality":"Gloucester"},"coordinates":[8731,2558]},{"type":"Point","properties":{"Zip Code":23108,"Name":"Mascot","State":"VA","Locality":"King And Queen"},"coordinates":[8318,3720]},{"type":"Point","properties":{"Zip Code":23109,"Name":"Mathews","State":"VA","Locality":"Mathews"},"coordinates":[8790,3122]},{"type":"Point","properties":{"Zip Code":23110,"Name":"Mattaponi","State":"VA","Locality":"King And Queen"},"coordinates":[8262,3844]},{"type":"Point","properties":{"Zip Code":23111,"Name":"Mechanicsville","State":"VA","Locality":"Hanover"},"coordinates":[7579,3796]},{"type":"Point","properties":{"Zip Code":23112,"Name":"Midlothian","State":"VA","Locality":"Chesterfield"},"coordinates":[7192,3096]},{"type":"Point","properties":{"Zip Code":23113,"Name":"Midlothian","State":"VA","Locality":"Chesterfield"},"coordinates":[7206,3380]},{"type":"Point","properties":{"Zip Code":23114,"Name":"Midlothian","State":"VA","Locality":"Chesterfield"},"coordinates":[8774,3028]},{"type":"Point","properties":{"Zip Code":23115,"Name":"Millers Tavern","State":"VA","Locality":"Essex"},"coordinates":[8064,4505]},{"type":"Point","properties":{"Zip Code":23116,"Name":"Mechanicsville","State":"VA","Locality":"Hanover"},"coordinates":[7537,3726]},{"type":"Point","properties":{"Zip Code":23117,"Name":"Mineral","State":"VA","Locality":"Louisa"},"coordinates":[6917,5110]},{"type":"Point","properties":{"Zip Code":23119,"Name":"Moon","State":"VA","Locality":"Mathews"},"coordinates":[8849,3161]},{"type":"Point","properties":{"Zip Code":23120,"Name":"Moseley","State":"VA","Locality":"Chesterfield"},"coordinates":[7064,3078]},{"type":"Point","properties":{"Zip Code":23123,"Name":"New Canton","State":"VA","Locality":"Buckingham"},"coordinates":[6385,3925]},{"type":"Point","properties":{"Zip Code":23124,"Name":"New Kent","State":"VA","Locality":"New Kent"},"coordinates":[7906,3529]},{"type":"Point","properties":{"Zip Code":23125,"Name":"New Point","State":"VA","Locality":"Mathews"},"coordinates":[8878,2806]},{"type":"Point","properties":{"Zip Code":23126,"Name":"Newtown","State":"VA","Locality":"King And Queen"},"coordinates":[7857,4683]},{"type":"Point","properties":{"Zip Code":23127,"Name":"Norge","State":"VA","Locality":"James City"},"coordinates":[8279,2875]},{"type":"Point","properties":{"Zip Code":23128,"Name":"North","State":"VA","Locality":"Mathews"},"coordinates":[8770,3260]},{"type":"Point","properties":{"Zip Code":23129,"Name":"Oilville","State":"VA","Locality":"Goochland"},"coordinates":[7050,4082]},{"type":"Point","properties":{"Zip Code":23130,"Name":"Onemo","State":"VA","Locality":"Mathews"},"coordinates":[8865,2981]},{"type":"Point","properties":{"Zip Code":23131,"Name":"Ordinary","State":"VA","Locality":"Gloucester"},"coordinates":[8595,2685]},{"type":"Point","properties":{"Zip Code":23138,"Name":"Port Haywood","State":"VA","Locality":"Mathews"},"coordinates":[8852,2895]},{"type":"Point","properties":{"Zip Code":23139,"Name":"Powhatan","State":"VA","Locality":"Powhatan"},"coordinates":[6915,3541]},{"type":"Point","properties":{"Zip Code":23140,"Name":"Providence Forge","State":"VA","Locality":"New Kent"},"coordinates":[7909,3078]},{"type":"Point","properties":{"Zip Code":23141,"Name":"Quinton","State":"VA","Locality":"New Kent"},"coordinates":[7814,3406]},{"type":"Point","properties":{"Zip Code":23146,"Name":"Rockville","State":"VA","Locality":"Hanover"},"coordinates":[7136,4170]},{"type":"Point","properties":{"Zip Code":23147,"Name":"Ruthville","State":"VA","Locality":"Charles City"},"coordinates":[7946,2870]},{"type":"Point","properties":{"Zip Code":23148,"Name":"Saint Stephens Church","State":"VA","Locality":"King And Queen"},"coordinates":[7893,4778]},{"type":"Point","properties":{"Zip Code":23149,"Name":"Saluda","State":"VA","Locality":"Middlesex"},"coordinates":[8498,3678]},{"type":"Point","properties":{"Zip Code":23150,"Name":"Sandston","State":"VA","Locality":"Henrico"},"coordinates":[7658,3396]},{"type":"Point","properties":{"Zip Code":23153,"Name":"Sandy Hook","State":"VA","Locality":"Goochland"},"coordinates":[6885,4235]},{"type":"Point","properties":{"Zip Code":23154,"Name":"Schley","State":"VA","Locality":"Gloucester"},"coordinates":[8666,2949]},{"type":"Point","properties":{"Zip Code":23155,"Name":"Severn","State":"VA","Locality":"Gloucester"},"coordinates":[8715,2610]},{"type":"Point","properties":{"Zip Code":23156,"Name":"Shacklefords","State":"VA","Locality":"King And Queen"},"coordinates":[8333,3589]},{"type":"Point","properties":{"Zip Code":23160,"Name":"State Farm","State":"VA","Locality":"Goochland"},"coordinates":[6978,3856]},{"type":"Point","properties":{"Zip Code":23161,"Name":"Stevensville","State":"VA","Locality":"King And Queen"},"coordinates":[8076,4102]},{"type":"Point","properties":{"Zip Code":23162,"Name":"Studley","State":"VA","Locality":"Hanover"},"coordinates":[7639,3964]},{"type":"Point","properties":{"Zip Code":23163,"Name":"Susan","State":"VA","Locality":"Mathews"},"coordinates":[8834,2851]},{"type":"Point","properties":{"Zip Code":23168,"Name":"Toano","State":"VA","Locality":"James City"},"coordinates":[8212,2951]},{"type":"Point","properties":{"Zip Code":23169,"Name":"Topping","State":"VA","Locality":"Middlesex"},"coordinates":[8667,3688]},{"type":"Point","properties":{"Zip Code":23170,"Name":"Trevilians","State":"VA","Locality":"Louisa"},"coordinates":[6678,5298]},{"type":"Point","properties":{"Zip Code":23173,"Name":"University Of Richmond","State":"VA","Locality":"Richmond City"},"coordinates":[7332,3602]},{"type":"Point","properties":{"Zip Code":23175,"Name":"Urbanna","State":"VA","Locality":"Middlesex"},"coordinates":[8473,3891]},{"type":"Point","properties":{"Zip Code":23176,"Name":"Wake","State":"VA","Locality":"Middlesex"},"coordinates":[8695,3582]},{"type":"Point","properties":{"Zip Code":23177,"Name":"Walkerton","State":"VA","Locality":"King And Queen"},"coordinates":[7974,4247]},{"type":"Point","properties":{"Zip Code":23178,"Name":"Ware Neck","State":"VA","Locality":"Gloucester"},"coordinates":[8662,2995]},{"type":"Point","properties":{"Zip Code":23180,"Name":"Water View","State":"VA","Locality":"Middlesex"},"coordinates":[8461,4088]},{"type":"Point","properties":{"Zip Code":23181,"Name":"West Point","State":"VA","Locality":"King William"},"coordinates":[8213,3538]},{"type":"Point","properties":{"Zip Code":23183,"Name":"White Marsh","State":"VA","Locality":"Gloucester"},"coordinates":[8585,2781]},{"type":"Point","properties":{"Zip Code":23184,"Name":"Wicomico","State":"VA","Locality":"Gloucester"},"coordinates":[8600,2599]},{"type":"Point","properties":{"Zip Code":23185,"Name":"Williamsburg","State":"VA","Locality":"James City"},"coordinates":[8364,2499]},{"type":"Point","properties":{"Zip Code":23186,"Name":"Williamsburg","State":"VA","Locality":"Williamsburg City"},"coordinates":[8342,2536]},{"type":"Point","properties":{"Zip Code":23187,"Name":"Williamsburg","State":"VA","Locality":"Williamsburg City"},"coordinates":[8356,2526]},{"type":"Point","properties":{"Zip Code":23188,"Name":"Williamsburg","State":"VA","Locality":"James City"},"coordinates":[8288,2694]},{"type":"Point","properties":{"Zip Code":23190,"Name":"Woods Cross Roads","State":"VA","Locality":"Gloucester"},"coordinates":[8555,3115]},{"type":"Point","properties":{"Zip Code":23192,"Name":"Montpelier","State":"VA","Locality":"Hanover"},"coordinates":[7146,4468]},{"type":"Point","properties":{"Zip Code":23218,"Name":"Richmond","State":"VA","Locality":"Richmond City"},"coordinates":[7447,3552]},{"type":"Point","properties":{"Zip Code":23219,"Name":"Richmond","State":"VA","Locality":"Richmond City"},"coordinates":[7459,3505]},{"type":"Point","properties":{"Zip Code":23220,"Name":"Richmond","State":"VA","Locality":"Richmond City"},"coordinates":[7433,3518]},{"type":"Point","properties":{"Zip Code":23221,"Name":"Richmond","State":"VA","Locality":"Richmond City"},"coordinates":[7401,3548]},{"type":"Point","properties":{"Zip Code":23222,"Name":"Richmond","State":"VA","Locality":"Richmond City"},"coordinates":[7472,3606]},{"type":"Point","properties":{"Zip Code":23223,"Name":"Richmond","State":"VA","Locality":"Richmond City"},"coordinates":[7511,3510]},{"type":"Point","properties":{"Zip Code":23224,"Name":"Richmond","State":"VA","Locality":"Richmond City"},"coordinates":[7418,3325]},{"type":"Point","properties":{"Zip Code":23225,"Name":"Richmond","State":"VA","Locality":"Richmond City"},"coordinates":[7376,3397]},{"type":"Point","properties":{"Zip Code":23226,"Name":"Richmond","State":"VA","Locality":"Henrico"},"coordinates":[7358,3634]},{"type":"Point","properties":{"Zip Code":23227,"Name":"Richmond","State":"VA","Locality":"Henrico"},"coordinates":[7448,3711]},{"type":"Point","properties":{"Zip Code":23228,"Name":"Richmond","State":"VA","Locality":"Henrico"},"coordinates":[7390,3779]},{"type":"Point","properties":{"Zip Code":23229,"Name":"Richmond","State":"VA","Locality":"Henrico"},"coordinates":[7301,3683]},{"type":"Point","properties":{"Zip Code":23230,"Name":"Richmond","State":"VA","Locality":"Henrico"},"coordinates":[7386,3655]},{"type":"Point","properties":{"Zip Code":23231,"Name":"Richmond","State":"VA","Locality":"Henrico"},"coordinates":[7544,3311]},{"type":"Point","properties":{"Zip Code":23232,"Name":"Richmond","State":"VA","Locality":"Richmond City"},"coordinates":[7447,3552]},{"type":"Point","properties":{"Zip Code":23233,"Name":"Richmond","State":"VA","Locality":"Henrico"},"coordinates":[7241,3764]},{"type":"Point","properties":{"Zip Code":23234,"Name":"Richmond","State":"VA","Locality":"Chesterfield"},"coordinates":[7419,3175]},{"type":"Point","properties":{"Zip Code":23235,"Name":"Richmond","State":"VA","Locality":"Chesterfield"},"coordinates":[7302,3384]},{"type":"Point","properties":{"Zip Code":23236,"Name":"Richmond","State":"VA","Locality":"Chesterfield"},"coordinates":[7277,3263]},{"type":"Point","properties":{"Zip Code":23237,"Name":"Richmond","State":"VA","Locality":"Chesterfield"},"coordinates":[7429,2990]},{"type":"Point","properties":{"Zip Code":23238,"Name":"Richmond","State":"VA","Locality":"Henrico"},"coordinates":[7233,3714]},{"type":"Point","properties":{"Zip Code":23240,"Name":"Richmond","State":"VA","Locality":"Richmond City"},"coordinates":[7431,3531]},{"type":"Point","properties":{"Zip Code":23241,"Name":"Richmond","State":"VA","Locality":"Richmond City"},"coordinates":[7455,3497]},{"type":"Point","properties":{"Zip Code":23242,"Name":"Richmond","State":"VA","Locality":"Henrico"},"coordinates":[7241,3756]},{"type":"Point","properties":{"Zip Code":23249,"Name":"Richmond","State":"VA","Locality":"Richmond City"},"coordinates":[7422,3329]},{"type":"Point","properties":{"Zip Code":23250,"Name":"Richmond","State":"VA","Locality":"Henrico"},"coordinates":[7582,3351]},{"type":"Point","properties":{"Zip Code":23255,"Name":"Richmond","State":"VA","Locality":"Henrico"},"coordinates":[7299,3722]},{"type":"Point","properties":{"Zip Code":23260,"Name":"Richmond","State":"VA","Locality":"Richmond City"},"coordinates":[7447,3552]},{"type":"Point","properties":{"Zip Code":23261,"Name":"Richmond","State":"VA","Locality":"Richmond City"},"coordinates":[7447,3552]},{"type":"Point","properties":{"Zip Code":23269,"Name":"Richmond","State":"VA","Locality":"Richmond City"},"coordinates":[7447,3552]},{"type":"Point","properties":{"Zip Code":23273,"Name":"Richmond","State":"VA","Locality":"Richmond City"},"coordinates":[7431,3531]},{"type":"Point","properties":{"Zip Code":23274,"Name":"Richmond","State":"VA","Locality":"Richmond City"},"coordinates":[7431,3531]},{"type":"Point","properties":{"Zip Code":23276,"Name":"Richmond","State":"VA","Locality":"Richmond City"},"coordinates":[7431,3531]},{"type":"Point","properties":{"Zip Code":23278,"Name":"Richmond","State":"VA","Locality":"Richmond City"},"coordinates":[7431,3531]},{"type":"Point","properties":{"Zip Code":23279,"Name":"Richmond","State":"VA","Locality":"Richmond City"},"coordinates":[7431,3531]},{"type":"Point","properties":{"Zip Code":23282,"Name":"Richmond","State":"VA","Locality":"Richmond City"},"coordinates":[7431,3531]},{"type":"Point","properties":{"Zip Code":23284,"Name":"Richmond","State":"VA","Locality":"Richmond City"},"coordinates":[7439,3513]},{"type":"Point","properties":{"Zip Code":23285,"Name":"Richmond","State":"VA","Locality":"Richmond City"},"coordinates":[7447,3552]},{"type":"Point","properties":{"Zip Code":23286,"Name":"Richmond","State":"VA","Locality":"Richmond City"},"coordinates":[7447,3552]},{"type":"Point","properties":{"Zip Code":23288,"Name":"Richmond","State":"VA","Locality":"Henrico"},"coordinates":[7326,3693]},{"type":"Point","properties":{"Zip Code":23289,"Name":"Richmond","State":"VA","Locality":"Richmond City"},"coordinates":[7445,3497]},{"type":"Point","properties":{"Zip Code":23290,"Name":"Richmond","State":"VA","Locality":"Richmond City"},"coordinates":[7431,3531]},{"type":"Point","properties":{"Zip Code":23291,"Name":"Richmond","State":"VA","Locality":"Richmond City"},"coordinates":[7431,3531]},{"type":"Point","properties":{"Zip Code":23292,"Name":"Richmond","State":"VA","Locality":"Richmond City"},"coordinates":[7431,3531]},{"type":"Point","properties":{"Zip Code":23293,"Name":"Richmond","State":"VA","Locality":"Richmond City"},"coordinates":[7456,3493]},{"type":"Point","properties":{"Zip Code":23294,"Name":"Richmond","State":"VA","Locality":"Henrico"},"coordinates":[7327,3813]},{"type":"Point","properties":{"Zip Code":23295,"Name":"Richmond","State":"VA","Locality":"Richmond City"},"coordinates":[7430,3531]},{"type":"Point","properties":{"Zip Code":23297,"Name":"Richmond","State":"VA","Locality":"Chesterfield"},"coordinates":[7432,2993]},{"type":"Point","properties":{"Zip Code":23298,"Name":"Richmond","State":"VA","Locality":"Richmond City"},"coordinates":[7470,3490]},{"type":"Point","properties":{"Zip Code":23301,"Name":"Accomac","State":"VA","Locality":"Accomack"},"coordinates":[9619,4107]},{"type":"Point","properties":{"Zip Code":23302,"Name":"Assawoman","State":"VA","Locality":"Accomack"},"coordinates":[9804,4641]},{"type":"Point","properties":{"Zip Code":23303,"Name":"Atlantic","State":"VA","Locality":"Accomack"},"coordinates":[9831,4762]},{"type":"Point","properties":{"Zip Code":23304,"Name":"Battery Park","State":"VA","Locality":"Isle Of Wight"},"coordinates":[8520,1554]},{"type":"Point","properties":{"Zip Code":23306,"Name":"Belle Haven","State":"VA","Locality":"Accomack"},"coordinates":[9387,3570]},{"type":"Point","properties":{"Zip Code":23307,"Name":"Birdsnest","State":"VA","Locality":"Northampton"},"coordinates":[9344,3100]},{"type":"Point","properties":{"Zip Code":23308,"Name":"Bloxom","State":"VA","Locality":"Accomack"},"coordinates":[9699,4502]},{"type":"Point","properties":{"Zip Code":23310,"Name":"Cape Charles","State":"VA","Locality":"Northampton"},"coordinates":[9260,2560]},{"type":"Point","properties":{"Zip Code":23313,"Name":"Capeville","State":"VA","Locality":"Northampton"},"coordinates":[9278,2286]},{"type":"Point","properties":{"Zip Code":23314,"Name":"Carrollton","State":"VA","Locality":"Isle Of Wight"},"coordinates":[8559,1407]},{"type":"Point","properties":{"Zip Code":23315,"Name":"Carrsville","State":"VA","Locality":"Isle Of Wight"},"coordinates":[8198,663]},{"type":"Point","properties":{"Zip Code":23316,"Name":"Cheriton","State":"VA","Locality":"Northampton"},"coordinates":[9261,2594]},{"type":"Point","properties":{"Zip Code":23320,"Name":"Chesapeake","State":"VA","Locality":"Chesapeake City"},"coordinates":[8933,627]},{"type":"Point","properties":{"Zip Code":23321,"Name":"Chesapeake","State":"VA","Locality":"Chesapeake City"},"coordinates":[8721,956]},{"type":"Point","properties":{"Zip Code":23322,"Name":"Chesapeake","State":"VA","Locality":"Chesapeake City"},"coordinates":[8964,268]},{"type":"Point","properties":{"Zip Code":23323,"Name":"Chesapeake","State":"VA","Locality":"Chesapeake City"},"coordinates":[8809,727]},{"type":"Point","properties":{"Zip Code":23324,"Name":"Chesapeake","State":"VA","Locality":"Chesapeake City"},"coordinates":[8898,877]},{"type":"Point","properties":{"Zip Code":23325,"Name":"Chesapeake","State":"VA","Locality":"Chesapeake City"},"coordinates":[8930,906]},{"type":"Point","properties":{"Zip Code":23326,"Name":"Chesapeake","State":"VA","Locality":"Chesapeake City"},"coordinates":[8916,737]},{"type":"Point","properties":{"Zip Code":23327,"Name":"Chesapeake","State":"VA","Locality":"Chesapeake City"},"coordinates":[8916,737]},{"type":"Point","properties":{"Zip Code":23328,"Name":"Chesapeake","State":"VA","Locality":"Chesapeake City"},"coordinates":[8947,607]},{"type":"Point","properties":{"Zip Code":23336,"Name":"Chincoteague Island","State":"VA","Locality":"Accomack"},"coordinates":[9999,4859]},{"type":"Point","properties":{"Zip Code":23337,"Name":"Wallops Island","State":"VA","Locality":"Accomack"},"coordinates":[9833,4503]},{"type":"Point","properties":{"Zip Code":23341,"Name":"Craddockville","State":"VA","Locality":"Accomack"},"coordinates":[9387,3631]},{"type":"Point","properties":{"Zip Code":23345,"Name":"Davis Wharf","State":"VA","Locality":"Accomack"},"coordinates":[9376,3528]},{"type":"Point","properties":{"Zip Code":23347,"Name":"Eastville","State":"VA","Locality":"Northampton"},"coordinates":[9292,2817]},{"type":"Point","properties":{"Zip Code":23350,"Name":"Exmore","State":"VA","Locality":"Northampton"},"coordinates":[9407,3382]},{"type":"Point","properties":{"Zip Code":23354,"Name":"Franktown","State":"VA","Locality":"Northampton"},"coordinates":[9363,3206]},{"type":"Point","properties":{"Zip Code":23356,"Name":"Greenbackville","State":"VA","Locality":"Accomack"},"coordinates":[9960,5138]},{"type":"Point","properties":{"Zip Code":23357,"Name":"Greenbush","State":"VA","Locality":"Accomack"},"coordinates":[9636,4292]},{"type":"Point","properties":{"Zip Code":23358,"Name":"Hacksneck","State":"VA","Locality":"Accomack"},"coordinates":[9385,3849]},{"type":"Point","properties":{"Zip Code":23359,"Name":"Hallwood","State":"VA","Locality":"Accomack"},"coordinates":[9765,4596]},{"type":"Point","properties":{"Zip Code":23389,"Name":"Harborton","State":"VA","Locality":"Accomack"},"coordinates":[9434,3915]},{"type":"Point","properties":{"Zip Code":23395,"Name":"Horntown","State":"VA","Locality":"Accomack"},"coordinates":[9876,5009]},{"type":"Point","properties":{"Zip Code":23396,"Name":"Oak Hall","State":"VA","Locality":"Accomack"},"coordinates":[9764,4878]},{"type":"Point","properties":{"Zip Code":23397,"Name":"Isle Of Wight","State":"VA","Locality":"Isle Of Wight"},"coordinates":[8356,1238]},{"type":"Point","properties":{"Zip Code":23398,"Name":"Jamesville","State":"VA","Locality":"Northampton"},"coordinates":[9311,3394]},{"type":"Point","properties":{"Zip Code":23399,"Name":"Jenkins Bridge","State":"VA","Locality":"Accomack"},"coordinates":[9679,4829]},{"type":"Point","properties":{"Zip Code":23401,"Name":"Keller","State":"VA","Locality":"Accomack"},"coordinates":[9516,3764]},{"type":"Point","properties":{"Zip Code":23404,"Name":"Locustville","State":"VA","Locality":"Accomack"},"coordinates":[9628,3885]},{"type":"Point","properties":{"Zip Code":23405,"Name":"Machipongo","State":"VA","Locality":"Northampton"},"coordinates":[9339,2991]},{"type":"Point","properties":{"Zip Code":23407,"Name":"Mappsville","State":"VA","Locality":"Accomack"},"coordinates":[9755,4531]},{"type":"Point","properties":{"Zip Code":23408,"Name":"Marionville","State":"VA","Locality":"Northampton"},"coordinates":[9404,3172]},{"type":"Point","properties":{"Zip Code":23409,"Name":"Mears","State":"VA","Locality":"Accomack"},"coordinates":[9674,4651]},{"type":"Point","properties":{"Zip Code":23410,"Name":"Melfa","State":"VA","Locality":"Accomack"},"coordinates":[9539,3840]},{"type":"Point","properties":{"Zip Code":23412,"Name":"Modest Town","State":"VA","Locality":"Accomack"},"coordinates":[9761,4451]},{"type":"Point","properties":{"Zip Code":23413,"Name":"Nassawadox","State":"VA","Locality":"Northampton"},"coordinates":[9400,3251]},{"type":"Point","properties":{"Zip Code":23414,"Name":"Nelsonia","State":"VA","Locality":"Accomack"},"coordinates":[9733,4476]},{"type":"Point","properties":{"Zip Code":23415,"Name":"New Church","State":"VA","Locality":"Accomack"},"coordinates":[9827,4947]},{"type":"Point","properties":{"Zip Code":23416,"Name":"Oak Hall","State":"VA","Locality":"Accomack"},"coordinates":[9710,4951]},{"type":"Point","properties":{"Zip Code":23417,"Name":"Onancock","State":"VA","Locality":"Accomack"},"coordinates":[9530,4087]},{"type":"Point","properties":{"Zip Code":23418,"Name":"Onley","State":"VA","Locality":"Accomack"},"coordinates":[9596,3946]},{"type":"Point","properties":{"Zip Code":23419,"Name":"Oyster","State":"VA","Locality":"Northampton"},"coordinates":[9321,2583]},{"type":"Point","properties":{"Zip Code":23420,"Name":"Painter","State":"VA","Locality":"Accomack"},"coordinates":[9464,3635]},{"type":"Point","properties":{"Zip Code":23421,"Name":"Parksley","State":"VA","Locality":"Accomack"},"coordinates":[9670,4315]},{"type":"Point","properties":{"Zip Code":23422,"Name":"Pungoteague","State":"VA","Locality":"Accomack"},"coordinates":[9455,3803]},{"type":"Point","properties":{"Zip Code":23423,"Name":"Quinby","State":"VA","Locality":"Accomack"},"coordinates":[9553,3531]},{"type":"Point","properties":{"Zip Code":23424,"Name":"Rescue","State":"VA","Locality":"Isle Of Wight"},"coordinates":[8537,1552]},{"type":"Point","properties":{"Zip Code":23426,"Name":"Sanford","State":"VA","Locality":"Accomack"},"coordinates":[9600,4847]},{"type":"Point","properties":{"Zip Code":23427,"Name":"Saxis","State":"VA","Locality":"Accomack"},"coordinates":[9568,4845]},{"type":"Point","properties":{"Zip Code":23429,"Name":"Seaview","State":"VA","Locality":"Northampton"},"coordinates":[9292,2495]},{"type":"Point","properties":{"Zip Code":23430,"Name":"Smithfield","State":"VA","Locality":"Isle Of Wight"},"coordinates":[8443,1499]},{"type":"Point","properties":{"Zip Code":23431,"Name":"Smithfield","State":"VA","Locality":"Isle Of Wight"},"coordinates":[8450,1503]},{"type":"Point","properties":{"Zip Code":23432,"Name":"Suffolk","State":"VA","Locality":"Suffolk City"},"coordinates":[8538,1094]},{"type":"Point","properties":{"Zip Code":23433,"Name":"Suffolk","State":"VA","Locality":"Suffolk City"},"coordinates":[8620,1244]},{"type":"Point","properties":{"Zip Code":23434,"Name":"Suffolk","State":"VA","Locality":"Suffolk City"},"coordinates":[8497,610]},{"type":"Point","properties":{"Zip Code":23435,"Name":"Suffolk","State":"VA","Locality":"Suffolk City"},"coordinates":[8653,1050]},{"type":"Point","properties":{"Zip Code":23436,"Name":"Suffolk","State":"VA","Locality":"Suffolk City"},"coordinates":[8594,1186]},{"type":"Point","properties":{"Zip Code":23437,"Name":"Suffolk","State":"VA","Locality":"Suffolk City"},"coordinates":[8252,334]},{"type":"Point","properties":{"Zip Code":23438,"Name":"Suffolk","State":"VA","Locality":"Suffolk City"},"coordinates":[8381,116]},{"type":"Point","properties":{"Zip Code":23439,"Name":"Suffolk","State":"VA","Locality":"Suffolk City"},"coordinates":[8508,601]},{"type":"Point","properties":{"Zip Code":23440,"Name":"Tangier","State":"VA","Locality":"Accomack"},"coordinates":[9235,4492]},{"type":"Point","properties":{"Zip Code":23441,"Name":"Tasley","State":"VA","Locality":"Accomack"},"coordinates":[9594,4087]},{"type":"Point","properties":{"Zip Code":23442,"Name":"Temperanceville","State":"VA","Locality":"Accomack"},"coordinates":[9776,4744]},{"type":"Point","properties":{"Zip Code":23443,"Name":"Townsend","State":"VA","Locality":"Northampton"},"coordinates":[9277,2221]},{"type":"Point","properties":{"Zip Code":23450,"Name":"Virginia Beach","State":"VA","Locality":"Virginia Beach City"},"coordinates":[9253,1044]},{"type":"Point","properties":{"Zip Code":23451,"Name":"Virginia Beach","State":"VA","Locality":"Virginia Beach City"},"coordinates":[9224,1064]},{"type":"Point","properties":{"Zip Code":23452,"Name":"Virginia Beach","State":"VA","Locality":"Virginia Beach City"},"coordinates":[9108,980]},{"type":"Point","properties":{"Zip Code":23453,"Name":"Virginia Beach","State":"VA","Locality":"Virginia Beach City"},"coordinates":[9121,818]},{"type":"Point","properties":{"Zip Code":23454,"Name":"Virginia Beach","State":"VA","Locality":"Virginia Beach City"},"coordinates":[9197,957]},{"type":"Point","properties":{"Zip Code":23455,"Name":"Virginia Beach","State":"VA","Locality":"Virginia Beach City"},"coordinates":[9048,1170]},{"type":"Point","properties":{"Zip Code":23456,"Name":"Virginia Beach","State":"VA","Locality":"Virginia Beach City"},"coordinates":[9117,785]},{"type":"Point","properties":{"Zip Code":23457,"Name":"Virginia Beach","State":"VA","Locality":"Virginia Beach City"},"coordinates":[9180,235]},{"type":"Point","properties":{"Zip Code":23458,"Name":"Virginia Beach","State":"VA","Locality":"Virginia Beach City"},"coordinates":[9255,1043]},{"type":"Point","properties":{"Zip Code":23459,"Name":"Virginia Beach","State":"VA","Locality":"Virginia Beach City"},"coordinates":[9205,1288]},{"type":"Point","properties":{"Zip Code":23460,"Name":"Virginia Beach","State":"VA","Locality":"Virginia Beach City"},"coordinates":[9191,904]},{"type":"Point","properties":{"Zip Code":23461,"Name":"Virginia Beach","State":"VA","Locality":"Virginia Beach City"},"coordinates":[9274,778]},{"type":"Point","properties":{"Zip Code":23462,"Name":"Virginia Beach","State":"VA","Locality":"Virginia Beach City"},"coordinates":[9039,996]},{"type":"Point","properties":{"Zip Code":23463,"Name":"Virginia Beach","State":"VA","Locality":"Virginia Beach City"},"coordinates":[8992,855]},{"type":"Point","properties":{"Zip Code":23464,"Name":"Virginia Beach","State":"VA","Locality":"Virginia Beach City"},"coordinates":[9010,849]},{"type":"Point","properties":{"Zip Code":23465,"Name":"Virginia Beach","State":"VA","Locality":"Virginia Beach City"},"coordinates":[9013,863]},{"type":"Point","properties":{"Zip Code":23466,"Name":"Virginia Beach","State":"VA","Locality":"Virginia Beach City"},"coordinates":[9253,1044]},{"type":"Point","properties":{"Zip Code":23467,"Name":"Virginia Beach","State":"VA","Locality":"Virginia Beach City"},"coordinates":[9013,863]},{"type":"Point","properties":{"Zip Code":23471,"Name":"Virginia Beach","State":"VA","Locality":"Virginia Beach City"},"coordinates":[9052,1195]},{"type":"Point","properties":{"Zip Code":23479,"Name":"Virginia Beach","State":"VA","Locality":"Virginia Beach City"},"coordinates":[9253,1044]},{"type":"Point","properties":{"Zip Code":23480,"Name":"Wachapreague","State":"VA","Locality":"Accomack"},"coordinates":[9607,3711]},{"type":"Point","properties":{"Zip Code":23482,"Name":"Wardtown","State":"VA","Locality":"Northampton"},"coordinates":[9377,3464]},{"type":"Point","properties":{"Zip Code":23483,"Name":"Wattsville","State":"VA","Locality":"Accomack"},"coordinates":[9841,4881]},{"type":"Point","properties":{"Zip Code":23486,"Name":"Willis Wharf","State":"VA","Locality":"Northampton"},"coordinates":[9464,3396]},{"type":"Point","properties":{"Zip Code":23487,"Name":"Windsor","State":"VA","Locality":"Isle Of Wight"},"coordinates":[8326,988]},{"type":"Point","properties":{"Zip Code":23488,"Name":"Withams","State":"VA","Locality":"Accomack"},"coordinates":[9746,4922]},{"type":"Point","properties":{"Zip Code":23501,"Name":"Norfolk","State":"VA","Locality":"Norfolk City"},"coordinates":[8875,1022]},{"type":"Point","properties":{"Zip Code":23502,"Name":"Norfolk","State":"VA","Locality":"Norfolk City"},"coordinates":[8963,1051]},{"type":"Point","properties":{"Zip Code":23503,"Name":"Norfolk","State":"VA","Locality":"Norfolk City"},"coordinates":[8916,1369]},{"type":"Point","properties":{"Zip Code":23504,"Name":"Norfolk","State":"VA","Locality":"Norfolk City"},"coordinates":[8896,1065]},{"type":"Point","properties":{"Zip Code":23505,"Name":"Norfolk","State":"VA","Locality":"Norfolk City"},"coordinates":[8873,1271]},{"type":"Point","properties":{"Zip Code":23506,"Name":"Norfolk","State":"VA","Locality":"Norfolk City"},"coordinates":[8875,1022]},{"type":"Point","properties":{"Zip Code":23507,"Name":"Norfolk","State":"VA","Locality":"Norfolk City"},"coordinates":[8857,1086]},{"type":"Point","properties":{"Zip Code":23508,"Name":"Norfolk","State":"VA","Locality":"Norfolk City"},"coordinates":[8857,1162]},{"type":"Point","properties":{"Zip Code":23509,"Name":"Norfolk","State":"VA","Locality":"Norfolk City"},"coordinates":[8906,1136]},{"type":"Point","properties":{"Zip Code":23510,"Name":"Norfolk","State":"VA","Locality":"Norfolk City"},"coordinates":[8872,1045]},{"type":"Point","properties":{"Zip Code":23511,"Name":"Norfolk","State":"VA","Locality":"Norfolk City"},"coordinates":[8846,1393]},{"type":"Point","properties":{"Zip Code":23512,"Name":"Norfolk","State":"VA","Locality":"Norfolk City"},"coordinates":[8838,1288]},{"type":"Point","properties":{"Zip Code":23513,"Name":"Norfolk","State":"VA","Locality":"Norfolk City"},"coordinates":[8932,1181]},{"type":"Point","properties":{"Zip Code":23514,"Name":"Norfolk","State":"VA","Locality":"Norfolk City"},"coordinates":[8869,1023]},{"type":"Point","properties":{"Zip Code":23515,"Name":"Norfolk","State":"VA","Locality":"Norfolk City"},"coordinates":[8857,1379]},{"type":"Point","properties":{"Zip Code":23517,"Name":"Norfolk","State":"VA","Locality":"Norfolk City"},"coordinates":[8864,1104]},{"type":"Point","properties":{"Zip Code":23518,"Name":"Norfolk","State":"VA","Locality":"Norfolk City"},"coordinates":[8961,1284]},{"type":"Point","properties":{"Zip Code":23519,"Name":"Norfolk","State":"VA","Locality":"Norfolk City"},"coordinates":[8995,1290]},{"type":"Point","properties":{"Zip Code":23520,"Name":"Norfolk","State":"VA","Locality":"Norfolk City"},"coordinates":[8875,1022]},{"type":"Point","properties":{"Zip Code":23521,"Name":"Norfolk","State":"VA","Locality":"Norfolk City"},"coordinates":[9025,1272]},{"type":"Point","properties":{"Zip Code":23523,"Name":"Norfolk","State":"VA","Locality":"Norfolk City"},"coordinates":[8894,961]},{"type":"Point","properties":{"Zip Code":23529,"Name":"Norfolk","State":"VA","Locality":"Norfolk City"},"coordinates":[8851,1166]},{"type":"Point","properties":{"Zip Code":23541,"Name":"Norfolk","State":"VA","Locality":"Norfolk City"},"coordinates":[8875,1022]},{"type":"Point","properties":{"Zip Code":23551,"Name":"Norfolk","State":"VA","Locality":"Norfolk City"},"coordinates":[8854,1299]},{"type":"Point","properties":{"Zip Code":23601,"Name":"Newport News","State":"VA","Locality":"Newport News City"},"coordinates":[8660,1772]},{"type":"Point","properties":{"Zip Code":23602,"Name":"Newport News","State":"VA","Locality":"Newport News City"},"coordinates":[8572,2034]},{"type":"Point","properties":{"Zip Code":23603,"Name":"Newport News","State":"VA","Locality":"Newport News City"},"coordinates":[8511,2272]},{"type":"Point","properties":{"Zip Code":23604,"Name":"Fort Eustis","State":"VA","Locality":"Newport News City"},"coordinates":[8501,2000]},{"type":"Point","properties":{"Zip Code":23605,"Name":"Newport News","State":"VA","Locality":"Newport News City"},"coordinates":[8694,1622]},{"type":"Point","properties":{"Zip Code":23606,"Name":"Newport News","State":"VA","Locality":"Newport News City"},"coordinates":[8616,1839]},{"type":"Point","properties":{"Zip Code":23607,"Name":"Newport News","State":"VA","Locality":"Newport News City"},"coordinates":[8714,1518]},{"type":"Point","properties":{"Zip Code":23608,"Name":"Newport News","State":"VA","Locality":"Newport News City"},"coordinates":[8559,2107]},{"type":"Point","properties":{"Zip Code":23609,"Name":"Newport News","State":"VA","Locality":"Newport News City"},"coordinates":[8700,1491]},{"type":"Point","properties":{"Zip Code":23612,"Name":"Newport News","State":"VA","Locality":"Newport News City"},"coordinates":[8617,1808]},{"type":"Point","properties":{"Zip Code":23628,"Name":"Newport News","State":"VA","Locality":"Newport News City"},"coordinates":[8700,1491]},{"type":"Point","properties":{"Zip Code":23630,"Name":"Hampton","State":"VA","Locality":"Hampton City"},"coordinates":[8718,1590]},{"type":"Point","properties":{"Zip Code":23651,"Name":"Fort Monroe","State":"VA","Locality":"Hampton City"},"coordinates":[8861,1672]},{"type":"Point","properties":{"Zip Code":23661,"Name":"Hampton","State":"VA","Locality":"Hampton City"},"coordinates":[8759,1593]},{"type":"Point","properties":{"Zip Code":23662,"Name":"Poquoson","State":"VA","Locality":"Poquoson City"},"coordinates":[8758,2032]},{"type":"Point","properties":{"Zip Code":23663,"Name":"Hampton","State":"VA","Locality":"Hampton City"},"coordinates":[8833,1679]},{"type":"Point","properties":{"Zip Code":23664,"Name":"Hampton","State":"VA","Locality":"Hampton City"},"coordinates":[8861,1767]},{"type":"Point","properties":{"Zip Code":23665,"Name":"Hampton","State":"VA","Locality":"York"},"coordinates":[8722,1923]},{"type":"Point","properties":{"Zip Code":23666,"Name":"Hampton","State":"VA","Locality":"Hampton City"},"coordinates":[8723,1731]},{"type":"Point","properties":{"Zip Code":23667,"Name":"Hampton","State":"VA","Locality":"Hampton City"},"coordinates":[8801,1672]},{"type":"Point","properties":{"Zip Code":23668,"Name":"Hampton","State":"VA","Locality":"Hampton City"},"coordinates":[8818,1640]},{"type":"Point","properties":{"Zip Code":23669,"Name":"Hampton","State":"VA","Locality":"Hampton City"},"coordinates":[8805,1721]},{"type":"Point","properties":{"Zip Code":23670,"Name":"Hampton","State":"VA","Locality":"Hampton City"},"coordinates":[8719,1587]},{"type":"Point","properties":{"Zip Code":23681,"Name":"Hampton","State":"VA","Locality":"Hampton City"},"coordinates":[8743,1925]},{"type":"Point","properties":{"Zip Code":23690,"Name":"Yorktown","State":"VA","Locality":"York"},"coordinates":[8559,2378]},{"type":"Point","properties":{"Zip Code":23691,"Name":"Yorktown","State":"VA","Locality":"York"},"coordinates":[8599,2413]},{"type":"Point","properties":{"Zip Code":23692,"Name":"Yorktown","State":"VA","Locality":"York"},"coordinates":[8661,2173]},{"type":"Point","properties":{"Zip Code":23693,"Name":"Yorktown","State":"VA","Locality":"York"},"coordinates":[8672,2002]},{"type":"Point","properties":{"Zip Code":23694,"Name":"Lackey","State":"VA","Locality":"York"},"coordinates":[8546,2386]},{"type":"Point","properties":{"Zip Code":23696,"Name":"Seaford","State":"VA","Locality":"York"},"coordinates":[8699,2235]},{"type":"Point","properties":{"Zip Code":23701,"Name":"Portsmouth","State":"VA","Locality":"Portsmouth City"},"coordinates":[8775,888]},{"type":"Point","properties":{"Zip Code":23702,"Name":"Portsmouth","State":"VA","Locality":"Portsmouth City"},"coordinates":[8824,869]},{"type":"Point","properties":{"Zip Code":23703,"Name":"Portsmouth","State":"VA","Locality":"Portsmouth City"},"coordinates":[8751,1103]},{"type":"Point","properties":{"Zip Code":23704,"Name":"Portsmouth","State":"VA","Locality":"Portsmouth City"},"coordinates":[8839,963]},{"type":"Point","properties":{"Zip Code":23705,"Name":"Portsmouth","State":"VA","Locality":"Portsmouth City"},"coordinates":[8859,982]},{"type":"Point","properties":{"Zip Code":23707,"Name":"Portsmouth","State":"VA","Locality":"Portsmouth City"},"coordinates":[8803,985]},{"type":"Point","properties":{"Zip Code":23708,"Name":"Portsmouth","State":"VA","Locality":"Portsmouth City"},"coordinates":[8847,1019]},{"type":"Point","properties":{"Zip Code":23709,"Name":"Portsmouth","State":"VA","Locality":"Portsmouth City"},"coordinates":[8851,906]},{"type":"Point","properties":{"Zip Code":23801,"Name":"Fort Lee","State":"VA","Locality":"Prince George"},"coordinates":[7586,2435]},{"type":"Point","properties":{"Zip Code":23803,"Name":"Petersburg","State":"VA","Locality":"Petersburg City"},"coordinates":[7465,2347]},{"type":"Point","properties":{"Zip Code":23804,"Name":"Petersburg","State":"VA","Locality":"Petersburg City"},"coordinates":[7502,2377]},{"type":"Point","properties":{"Zip Code":23805,"Name":"Petersburg","State":"VA","Locality":"Petersburg City"},"coordinates":[7523,2212]},{"type":"Point","properties":{"Zip Code":23806,"Name":"Petersburg","State":"VA","Locality":"Petersburg City"},"coordinates":[7481,2399]},{"type":"Point","properties":{"Zip Code":23821,"Name":"Alberta","State":"VA","Locality":"Brunswick"},"coordinates":[6884,1143]},{"type":"Point","properties":{"Zip Code":23822,"Name":"Ammon","State":"VA","Locality":"Dinwiddie"},"coordinates":[7082,2102]},{"type":"Point","properties":{"Zip Code":23824,"Name":"Blackstone","State":"VA","Locality":"Nottoway"},"coordinates":[6786,1892]},{"type":"Point","properties":{"Zip Code":23825,"Name":"Blackstone","State":"VA","Locality":"Nottoway"},"coordinates":[6770,1849]},{"type":"Point","properties":{"Zip Code":23827,"Name":"Boykins","State":"VA","Locality":"Southampton"},"coordinates":[7754,130]},{"type":"Point","properties":{"Zip Code":23828,"Name":"Branchville","State":"VA","Locality":"Southampton"},"coordinates":[7664,71]},{"type":"Point","properties":{"Zip Code":23829,"Name":"Capron","State":"VA","Locality":"Southampton"},"coordinates":[7703,588]},{"type":"Point","properties":{"Zip Code":23830,"Name":"Carson","State":"VA","Locality":"Dinwiddie"},"coordinates":[7462,1706]},{"type":"Point","properties":{"Zip Code":23831,"Name":"Chester","State":"VA","Locality":"Chesterfield"},"coordinates":[7486,2784]},{"type":"Point","properties":{"Zip Code":23832,"Name":"Chesterfield","State":"VA","Locality":"Chesterfield"},"coordinates":[7300,2959]},{"type":"Point","properties":{"Zip Code":23833,"Name":"Church Road","State":"VA","Locality":"Dinwiddie"},"coordinates":[7180,2258]},{"type":"Point","properties":{"Zip Code":23834,"Name":"Colonial Heights","State":"VA","Locality":"Colonial Heights City"},"coordinates":[7500,2525]},{"type":"Point","properties":{"Zip Code":23836,"Name":"Chester","State":"VA","Locality":"Chesterfield"},"coordinates":[7453,2832]},{"type":"Point","properties":{"Zip Code":23837,"Name":"Courtland","State":"VA","Locality":"Southampton"},"coordinates":[7901,582]},{"type":"Point","properties":{"Zip Code":23838,"Name":"Chesterfield","State":"VA","Locality":"Chesterfield"},"coordinates":[7375,2904]},{"type":"Point","properties":{"Zip Code":23839,"Name":"Dendron","State":"VA","Locality":"Surry"},"coordinates":[8124,1915]},{"type":"Point","properties":{"Zip Code":23840,"Name":"Dewitt","State":"VA","Locality":"Dinwiddie"},"coordinates":[7207,1756]},{"type":"Point","properties":{"Zip Code":23841,"Name":"Dinwiddie","State":"VA","Locality":"Dinwiddie"},"coordinates":[7310,1862]},{"type":"Point","properties":{"Zip Code":23842,"Name":"Disputanta","State":"VA","Locality":"Prince George"},"coordinates":[7661,2093]},{"type":"Point","properties":{"Zip Code":23843,"Name":"Dolphin","State":"VA","Locality":"Brunswick"},"coordinates":[7027,970]},{"type":"Point","properties":{"Zip Code":23844,"Name":"Drewryville","State":"VA","Locality":"Southampton"},"coordinates":[7555,450]},{"type":"Point","properties":{"Zip Code":23845,"Name":"Ebony","State":"VA","Locality":"Brunswick"},"coordinates":[6768,94]},{"type":"Point","properties":{"Zip Code":23846,"Name":"Elberon","State":"VA","Locality":"Surry"},"coordinates":[8201,1815]},{"type":"Point","properties":{"Zip Code":23847,"Name":"Emporia","State":"VA","Locality":"Greensville"},"coordinates":[7305,451]},{"type":"Point","properties":{"Zip Code":23850,"Name":"Ford","State":"VA","Locality":"Dinwiddie"},"coordinates":[7091,2062]},{"type":"Point","properties":{"Zip Code":23851,"Name":"Franklin","State":"VA","Locality":"Franklin City"},"coordinates":[8072,426]},{"type":"Point","properties":{"Zip Code":23856,"Name":"Freeman","State":"VA","Locality":"Brunswick"},"coordinates":[7111,819]},{"type":"Point","properties":{"Zip Code":23857,"Name":"Gasburg","State":"VA","Locality":"Brunswick"},"coordinates":[6887,64]},{"type":"Point","properties":{"Zip Code":23860,"Name":"Hopewell","State":"VA","Locality":"Hopewell City"},"coordinates":[7634,2587]},{"type":"Point","properties":{"Zip Code":23866,"Name":"Ivor","State":"VA","Locality":"Southampton"},"coordinates":[8137,1237]},{"type":"Point","properties":{"Zip Code":23867,"Name":"Jarratt","State":"VA","Locality":"Greensville"},"coordinates":[7403,925]},{"type":"Point","properties":{"Zip Code":23868,"Name":"Lawrenceville","State":"VA","Locality":"Brunswick"},"coordinates":[6966,661]},{"type":"Point","properties":{"Zip Code":23870,"Name":"Jarratt","State":"VA","Locality":"Greensville"},"coordinates":[7421,907]},{"type":"Point","properties":{"Zip Code":23872,"Name":"Mc Kenney","State":"VA","Locality":"Dinwiddie"},"coordinates":[7088,1562]},{"type":"Point","properties":{"Zip Code":23873,"Name":"Meredithville","State":"VA","Locality":"Brunswick"},"coordinates":[6820,880]},{"type":"Point","properties":{"Zip Code":23874,"Name":"Newsoms","State":"VA","Locality":"Southampton"},"coordinates":[7865,200]},{"type":"Point","properties":{"Zip Code":23875,"Name":"Prince George","State":"VA","Locality":"Prince George"},"coordinates":[7659,2395]},{"type":"Point","properties":{"Zip Code":23876,"Name":"Rawlings","State":"VA","Locality":"Brunswick"},"coordinates":[6984,1400]},{"type":"Point","properties":{"Zip Code":23878,"Name":"Sedley","State":"VA","Locality":"Southampton"},"coordinates":[7981,824]},{"type":"Point","properties":{"Zip Code":23879,"Name":"Skippers","State":"VA","Locality":"Greensville"},"coordinates":[7328,75]},{"type":"Point","properties":{"Zip Code":23881,"Name":"Spring Grove","State":"VA","Locality":"Surry"},"coordinates":[8006,2241]},{"type":"Point","properties":{"Zip Code":23882,"Name":"Stony Creek","State":"VA","Locality":"Sussex"},"coordinates":[7451,1340]},{"type":"Point","properties":{"Zip Code":23883,"Name":"Surry","State":"VA","Locality":"Surry"},"coordinates":[8286,2014]},{"type":"Point","properties":{"Zip Code":23884,"Name":"Sussex","State":"VA","Locality":"Sussex"},"coordinates":[7653,1265]},{"type":"Point","properties":{"Zip Code":23885,"Name":"Sutherland","State":"VA","Locality":"Dinwiddie"},"coordinates":[7302,2241]},{"type":"Point","properties":{"Zip Code":23887,"Name":"Valentines","State":"VA","Locality":"Brunswick"},"coordinates":[6966,23]},{"type":"Point","properties":{"Zip Code":23888,"Name":"Wakefield","State":"VA","Locality":"Sussex"},"coordinates":[8023,1480]},{"type":"Point","properties":{"Zip Code":23889,"Name":"Warfield","State":"VA","Locality":"Brunswick"},"coordinates":[7053,1216]},{"type":"Point","properties":{"Zip Code":23890,"Name":"Waverly","State":"VA","Locality":"Sussex"},"coordinates":[7867,1655]},{"type":"Point","properties":{"Zip Code":23891,"Name":"Waverly","State":"VA","Locality":"Sussex"},"coordinates":[7879,1694]},{"type":"Point","properties":{"Zip Code":23893,"Name":"White Plains","State":"VA","Locality":"Brunswick"},"coordinates":[6818,266]},{"type":"Point","properties":{"Zip Code":23894,"Name":"Wilsons","State":"VA","Locality":"Dinwiddie"},"coordinates":[6970,1977]},{"type":"Point","properties":{"Zip Code":23897,"Name":"Yale","State":"VA","Locality":"Sussex"},"coordinates":[7644,989]},{"type":"Point","properties":{"Zip Code":23898,"Name":"Zuni","State":"VA","Locality":"Isle Of Wight"},"coordinates":[8229,1012]},{"type":"Point","properties":{"Zip Code":23899,"Name":"Claremont","State":"VA","Locality":"Surry"},"coordinates":[8041,2375]},{"type":"Point","properties":{"Zip Code":23901,"Name":"Farmville","State":"VA","Locality":"Prince Edward"},"coordinates":[6266,2641]},{"type":"Point","properties":{"Zip Code":23909,"Name":"Farmville","State":"VA","Locality":"Prince Edward"},"coordinates":[6280,2631]},{"type":"Point","properties":{"Zip Code":23915,"Name":"Baskerville","State":"VA","Locality":"Mecklenburg"},"coordinates":[6424,586]},{"type":"Point","properties":{"Zip Code":23917,"Name":"Boydton","State":"VA","Locality":"Mecklenburg"},"coordinates":[6306,340]},{"type":"Point","properties":{"Zip Code":23919,"Name":"Bracey","State":"VA","Locality":"Mecklenburg"},"coordinates":[6637,63]},{"type":"Point","properties":{"Zip Code":23920,"Name":"Brodnax","State":"VA","Locality":"Brunswick"},"coordinates":[6780,615]},{"type":"Point","properties":{"Zip Code":23921,"Name":"Buckingham","State":"VA","Locality":"Buckingham"},"coordinates":[6032,3637]},{"type":"Point","properties":{"Zip Code":23922,"Name":"Burkeville","State":"VA","Locality":"Nottoway"},"coordinates":[6526,2259]},{"type":"Point","properties":{"Zip Code":23923,"Name":"Charlotte Court House","State":"VA","Locality":"Charlotte"},"coordinates":[5955,1873]},{"type":"Point","properties":{"Zip Code":23924,"Name":"Chase City","State":"VA","Locality":"Mecklenburg"},"coordinates":[6208,876]},{"type":"Point","properties":{"Zip Code":23927,"Name":"Clarksville","State":"VA","Locality":"Mecklenburg"},"coordinates":[6109,259]},{"type":"Point","properties":{"Zip Code":23930,"Name":"Crewe","State":"VA","Locality":"Nottoway"},"coordinates":[6637,2154]},{"type":"Point","properties":{"Zip Code":23934,"Name":"Cullen","State":"VA","Locality":"Charlotte"},"coordinates":[5973,2117]},{"type":"Point","properties":{"Zip Code":23936,"Name":"Dillwyn","State":"VA","Locality":"Buckingham"},"coordinates":[6201,3503]},{"type":"Point","properties":{"Zip Code":23937,"Name":"Drakes Branch","State":"VA","Locality":"Charlotte"},"coordinates":[6077,1456]},{"type":"Point","properties":{"Zip Code":23938,"Name":"Dundas","State":"VA","Locality":"Lunenburg"},"coordinates":[6755,1231]},{"type":"Point","properties":{"Zip Code":23939,"Name":"Evergreen","State":"VA","Locality":"Appomattox"},"coordinates":[5826,2696]},{"type":"Point","properties":{"Zip Code":23941,"Name":"Fort Mitchell","State":"VA","Locality":"Lunenburg"},"coordinates":[6169,1276]},{"type":"Point","properties":{"Zip Code":23942,"Name":"Green Bay","State":"VA","Locality":"Prince Edward"},"coordinates":[6390,2005]},{"type":"Point","properties":{"Zip Code":23943,"Name":"Hampden Sydney","State":"VA","Locality":"Prince Edward"},"coordinates":[6192,2173]},{"type":"Point","properties":{"Zip Code":23944,"Name":"Kenbridge","State":"VA","Locality":"Lunenburg"},"coordinates":[6615,1329]},{"type":"Point","properties":{"Zip Code":23947,"Name":"Keysville","State":"VA","Locality":"Charlotte"},"coordinates":[6190,1712]},{"type":"Point","properties":{"Zip Code":23950,"Name":"La Crosse","State":"VA","Locality":"Mecklenburg"},"coordinates":[6650,453]},{"type":"Point","properties":{"Zip Code":23952,"Name":"Lunenburg","State":"VA","Locality":"Lunenburg"},"coordinates":[6410,1292]},{"type":"Point","properties":{"Zip Code":23954,"Name":"Meherrin","State":"VA","Locality":"Prince Edward"},"coordinates":[6291,1926]},{"type":"Point","properties":{"Zip Code":23955,"Name":"Nottoway","State":"VA","Locality":"Nottoway"},"coordinates":[6671,2022]},{"type":"Point","properties":{"Zip Code":23958,"Name":"Pamplin","State":"VA","Locality":"Appomattox"},"coordinates":[5966,2508]},{"type":"Point","properties":{"Zip Code":23959,"Name":"Phenix","State":"VA","Locality":"Charlotte"},"coordinates":[5795,1895]},{"type":"Point","properties":{"Zip Code":23960,"Name":"Prospect","State":"VA","Locality":"Prince Edward"},"coordinates":[6096,2652]},{"type":"Point","properties":{"Zip Code":23962,"Name":"Randolph","State":"VA","Locality":"Charlotte"},"coordinates":[5908,1436]},{"type":"Point","properties":{"Zip Code":23963,"Name":"Red House","State":"VA","Locality":"Charlotte"},"coordinates":[5766,2246]},{"type":"Point","properties":{"Zip Code":23964,"Name":"Red Oak","State":"VA","Locality":"Charlotte"},"coordinates":[5990,759]},{"type":"Point","properties":{"Zip Code":23966,"Name":"Rice","State":"VA","Locality":"Prince Edward"},"coordinates":[6424,2532]},{"type":"Point","properties":{"Zip Code":23967,"Name":"Saxe","State":"VA","Locality":"Charlotte"},"coordinates":[6023,1232]},{"type":"Point","properties":{"Zip Code":23968,"Name":"Skipwith","State":"VA","Locality":"Mecklenburg"},"coordinates":[6115,614]},{"type":"Point","properties":{"Zip Code":23970,"Name":"South Hill","State":"VA","Locality":"Mecklenburg"},"coordinates":[6579,546]},{"type":"Point","properties":{"Zip Code":23974,"Name":"Victoria","State":"VA","Locality":"Lunenburg"},"coordinates":[6476,1508]},{"type":"Point","properties":{"Zip Code":23976,"Name":"Wylliesburg","State":"VA","Locality":"Charlotte"},"coordinates":[6014,995]},{"type":"Point","properties":{"Zip Code":24001,"Name":"Roanoke","State":"VA","Locality":"Roanoke City"},"coordinates":[4380,2528]},{"type":"Point","properties":{"Zip Code":24002,"Name":"Roanoke","State":"VA","Locality":"Roanoke City"},"coordinates":[4380,2528]},{"type":"Point","properties":{"Zip Code":24003,"Name":"Roanoke","State":"VA","Locality":"Roanoke City"},"coordinates":[4380,2528]},{"type":"Point","properties":{"Zip Code":24004,"Name":"Roanoke","State":"VA","Locality":"Roanoke City"},"coordinates":[4380,2528]},{"type":"Point","properties":{"Zip Code":24005,"Name":"Roanoke","State":"VA","Locality":"Roanoke City"},"coordinates":[4380,2528]},{"type":"Point","properties":{"Zip Code":24006,"Name":"Roanoke","State":"VA","Locality":"Roanoke City"},"coordinates":[4380,2528]},{"type":"Point","properties":{"Zip Code":24007,"Name":"Roanoke","State":"VA","Locality":"Roanoke City"},"coordinates":[4380,2528]},{"type":"Point","properties":{"Zip Code":24008,"Name":"Roanoke","State":"VA","Locality":"Roanoke City"},"coordinates":[4380,2528]},{"type":"Point","properties":{"Zip Code":24009,"Name":"Roanoke","State":"VA","Locality":"Roanoke City"},"coordinates":[4380,2528]},{"type":"Point","properties":{"Zip Code":24010,"Name":"Roanoke","State":"VA","Locality":"Roanoke City"},"coordinates":[4380,2528]},{"type":"Point","properties":{"Zip Code":24011,"Name":"Roanoke","State":"VA","Locality":"Roanoke City"},"coordinates":[4380,2521]},{"type":"Point","properties":{"Zip Code":24012,"Name":"Roanoke","State":"VA","Locality":"Roanoke City"},"coordinates":[4392,2641]},{"type":"Point","properties":{"Zip Code":24013,"Name":"Roanoke","State":"VA","Locality":"Roanoke City"},"coordinates":[4401,2516]},{"type":"Point","properties":{"Zip Code":24014,"Name":"Roanoke","State":"VA","Locality":"Roanoke City"},"coordinates":[4375,2392]},{"type":"Point","properties":{"Zip Code":24015,"Name":"Roanoke","State":"VA","Locality":"Roanoke City"},"coordinates":[4332,2483]},{"type":"Point","properties":{"Zip Code":24016,"Name":"Roanoke","State":"VA","Locality":"Roanoke City"},"coordinates":[4366,2526]},{"type":"Point","properties":{"Zip Code":24017,"Name":"Roanoke","State":"VA","Locality":"Roanoke City"},"coordinates":[4321,2609]},{"type":"Point","properties":{"Zip Code":24018,"Name":"Roanoke","State":"VA","Locality":"Roanoke"},"coordinates":[4282,2388]},{"type":"Point","properties":{"Zip Code":24019,"Name":"Roanoke","State":"VA","Locality":"Roanoke"},"coordinates":[4362,2758]},{"type":"Point","properties":{"Zip Code":24020,"Name":"Roanoke","State":"VA","Locality":"Roanoke"},"coordinates":[4380,2827]},{"type":"Point","properties":{"Zip Code":24022,"Name":"Roanoke","State":"VA","Locality":"Roanoke City"},"coordinates":[4380,2528]},{"type":"Point","properties":{"Zip Code":24023,"Name":"Roanoke","State":"VA","Locality":"Roanoke City"},"coordinates":[4366,2524]},{"type":"Point","properties":{"Zip Code":24024,"Name":"Roanoke","State":"VA","Locality":"Roanoke City"},"coordinates":[4380,2528]},{"type":"Point","properties":{"Zip Code":24025,"Name":"Roanoke","State":"VA","Locality":"Roanoke City"},"coordinates":[4380,2528]},{"type":"Point","properties":{"Zip Code":24026,"Name":"Roanoke","State":"VA","Locality":"Roanoke City"},"coordinates":[4380,2528]},{"type":"Point","properties":{"Zip Code":24027,"Name":"Roanoke","State":"VA","Locality":"Roanoke City"},"coordinates":[4380,2528]},{"type":"Point","properties":{"Zip Code":24028,"Name":"Roanoke","State":"VA","Locality":"Roanoke City"},"coordinates":[4380,2528]},{"type":"Point","properties":{"Zip Code":24029,"Name":"Roanoke","State":"VA","Locality":"Roanoke City"},"coordinates":[4380,2528]},{"type":"Point","properties":{"Zip Code":24030,"Name":"Roanoke","State":"VA","Locality":"Roanoke City"},"coordinates":[4380,2528]},{"type":"Point","properties":{"Zip Code":24031,"Name":"Roanoke","State":"VA","Locality":"Roanoke City"},"coordinates":[4380,2528]},{"type":"Point","properties":{"Zip Code":24032,"Name":"Roanoke","State":"VA","Locality":"Roanoke City"},"coordinates":[4380,2528]},{"type":"Point","properties":{"Zip Code":24033,"Name":"Roanoke","State":"VA","Locality":"Roanoke City"},"coordinates":[4380,2528]},{"type":"Point","properties":{"Zip Code":24034,"Name":"Roanoke","State":"VA","Locality":"Roanoke City"},"coordinates":[4380,2528]},{"type":"Point","properties":{"Zip Code":24035,"Name":"Roanoke","State":"VA","Locality":"Roanoke City"},"coordinates":[4380,2528]},{"type":"Point","properties":{"Zip Code":24036,"Name":"Roanoke","State":"VA","Locality":"Roanoke City"},"coordinates":[4380,2528]},{"type":"Point","properties":{"Zip Code":24037,"Name":"Roanoke","State":"VA","Locality":"Roanoke City"},"coordinates":[4380,2528]},{"type":"Point","properties":{"Zip Code":24038,"Name":"Roanoke","State":"VA","Locality":"Roanoke City"},"coordinates":[4380,2528]},{"type":"Point","properties":{"Zip Code":24040,"Name":"Roanoke","State":"VA","Locality":"Roanoke City"},"coordinates":[4380,2528]},{"type":"Point","properties":{"Zip Code":24042,"Name":"Roanoke","State":"VA","Locality":"Roanoke City"},"coordinates":[4384,2523]},{"type":"Point","properties":{"Zip Code":24043,"Name":"Roanoke","State":"VA","Locality":"Roanoke City"},"coordinates":[4380,2528]},{"type":"Point","properties":{"Zip Code":24044,"Name":"Roanoke","State":"VA","Locality":"Roanoke City"},"coordinates":[4380,2528]},{"type":"Point","properties":{"Zip Code":24045,"Name":"Roanoke","State":"VA","Locality":"Roanoke City"},"coordinates":[4380,2528]},{"type":"Point","properties":{"Zip Code":24048,"Name":"Roanoke","State":"VA","Locality":"Roanoke City"},"coordinates":[4380,2528]},{"type":"Point","properties":{"Zip Code":24050,"Name":"Roanoke","State":"VA","Locality":"Botetourt"},"coordinates":[4366,2534]},{"type":"Point","properties":{"Zip Code":24053,"Name":"Ararat","State":"VA","Locality":"Patrick"},"coordinates":[3682,197]},{"type":"Point","properties":{"Zip Code":24054,"Name":"Axton","State":"VA","Locality":"Henry"},"coordinates":[4629,342]},{"type":"Point","properties":{"Zip Code":24055,"Name":"Bassett","State":"VA","Locality":"Henry"},"coordinates":[4302,692]},{"type":"Point","properties":{"Zip Code":24058,"Name":"Belspring","State":"VA","Locality":"Pulaski"},"coordinates":[3561,2244]},{"type":"Point","properties":{"Zip Code":24059,"Name":"Bent Mountain","State":"VA","Locality":"Roanoke"},"coordinates":[4130,2300]},{"type":"Point","properties":{"Zip Code":24060,"Name":"Blacksburg","State":"VA","Locality":"Montgomery"},"coordinates":[3783,2379]},{"type":"Point","properties":{"Zip Code":24061,"Name":"Blacksburg","State":"VA","Locality":"Montgomery"},"coordinates":[3788,2377]},{"type":"Point","properties":{"Zip Code":24062,"Name":"Blacksburg","State":"VA","Locality":"Montgomery"},"coordinates":[3800,2381]},{"type":"Point","properties":{"Zip Code":24063,"Name":"Blacksburg","State":"VA","Locality":"Montgomery"},"coordinates":[3800,2381]},{"type":"Point","properties":{"Zip Code":24064,"Name":"Blue Ridge","State":"VA","Locality":"Botetourt"},"coordinates":[4533,2945]},{"type":"Point","properties":{"Zip Code":24065,"Name":"Boones Mill","State":"VA","Locality":"Franklin"},"coordinates":[4363,2039]},{"type":"Point","properties":{"Zip Code":24066,"Name":"Buchanan","State":"VA","Locality":"Botetourt"},"coordinates":[4671,3442]},{"type":"Point","properties":{"Zip Code":24067,"Name":"Callaway","State":"VA","Locality":"Franklin"},"coordinates":[4248,1668]},{"type":"Point","properties":{"Zip Code":24068,"Name":"Christiansburg","State":"VA","Locality":"Montgomery"},"coordinates":[3806,2027]},{"type":"Point","properties":{"Zip Code":24069,"Name":"Cascade","State":"VA","Locality":"Pittsylvania"},"coordinates":[4730,121]},{"type":"Point","properties":{"Zip Code":24070,"Name":"Catawba","State":"VA","Locality":"Roanoke"},"coordinates":[4151,2878]},{"type":"Point","properties":{"Zip Code":24072,"Name":"Check","State":"VA","Locality":"Floyd"},"coordinates":[4018,1682]},{"type":"Point","properties":{"Zip Code":24073,"Name":"Christiansburg","State":"VA","Locality":"Montgomery"},"coordinates":[3794,2047]},{"type":"Point","properties":{"Zip Code":24076,"Name":"Claudville","State":"VA","Locality":"Patrick"},"coordinates":[3763,90]},{"type":"Point","properties":{"Zip Code":24077,"Name":"Cloverdale","State":"VA","Locality":"Botetourt"},"coordinates":[4416,2866]},{"type":"Point","properties":{"Zip Code":24078,"Name":"Collinsville","State":"VA","Locality":"Henry"},"coordinates":[4414,586]},{"type":"Point","properties":{"Zip Code":24079,"Name":"Copper Hill","State":"VA","Locality":"Floyd"},"coordinates":[4121,1764]},{"type":"Point","properties":{"Zip Code":24082,"Name":"Critz","State":"VA","Locality":"Patrick"},"coordinates":[4149,222]},{"type":"Point","properties":{"Zip Code":24083,"Name":"Daleville","State":"VA","Locality":"Botetourt"},"coordinates":[4406,3031]},{"type":"Point","properties":{"Zip Code":24084,"Name":"Dublin","State":"VA","Locality":"Pulaski"},"coordinates":[3485,1917]},{"type":"Point","properties":{"Zip Code":24085,"Name":"Eagle Rock","State":"VA","Locality":"Botetourt"},"coordinates":[4533,3933]},{"type":"Point","properties":{"Zip Code":24086,"Name":"Eggleston","State":"VA","Locality":"Giles"},"coordinates":[3506,2598]},{"type":"Point","properties":{"Zip Code":24087,"Name":"Elliston","State":"VA","Locality":"Montgomery"},"coordinates":[4002,2321]},{"type":"Point","properties":{"Zip Code":24088,"Name":"Ferrum","State":"VA","Locality":"Franklin"},"coordinates":[4266,1271]},{"type":"Point","properties":{"Zip Code":24089,"Name":"Fieldale","State":"VA","Locality":"Henry"},"coordinates":[4351,525]},{"type":"Point","properties":{"Zip Code":24090,"Name":"Fincastle","State":"VA","Locality":"Botetourt"},"coordinates":[4492,3309]},{"type":"Point","properties":{"Zip Code":24091,"Name":"Floyd","State":"VA","Locality":"Floyd"},"coordinates":[3916,1281]},{"type":"Point","properties":{"Zip Code":24092,"Name":"Glade Hill","State":"VA","Locality":"Franklin"},"coordinates":[4584,1626]},{"type":"Point","properties":{"Zip Code":24093,"Name":"Glen Lyn","State":"VA","Locality":"Giles"},"coordinates":[3247,2868]},{"type":"Point","properties":{"Zip Code":24095,"Name":"Goodview","State":"VA","Locality":"Bedford"},"coordinates":[4645,2799]},{"type":"Point","properties":{"Zip Code":24101,"Name":"Hardy","State":"VA","Locality":"Franklin"},"coordinates":[4539,2328]},{"type":"Point","properties":{"Zip Code":24102,"Name":"Henry","State":"VA","Locality":"Franklin"},"coordinates":[4321,996]},{"type":"Point","properties":{"Zip Code":24104,"Name":"Huddleston","State":"VA","Locality":"Bedford"},"coordinates":[4934,2078]},{"type":"Point","properties":{"Zip Code":24105,"Name":"Indian Valley","State":"VA","Locality":"Floyd"},"coordinates":[3601,1208]},{"type":"Point","properties":{"Zip Code":24111,"Name":"Mc Coy","State":"VA","Locality":"Montgomery"},"coordinates":[3576,2407]},{"type":"Point","properties":{"Zip Code":24112,"Name":"Martinsville","State":"VA","Locality":"Martinsville City"},"coordinates":[4470,456]},{"type":"Point","properties":{"Zip Code":24113,"Name":"Martinsville","State":"VA","Locality":"Martinsville City"},"coordinates":[4489,432]},{"type":"Point","properties":{"Zip Code":24114,"Name":"Martinsville","State":"VA","Locality":"Martinsville City"},"coordinates":[4489,432]},{"type":"Point","properties":{"Zip Code":24115,"Name":"Martinsville","State":"VA","Locality":"Martinsville City"},"coordinates":[4489,432]},{"type":"Point","properties":{"Zip Code":24120,"Name":"Meadows Of Dan","State":"VA","Locality":"Patrick"},"coordinates":[3814,591]},{"type":"Point","properties":{"Zip Code":24121,"Name":"Moneta","State":"VA","Locality":"Bedford"},"coordinates":[4736,2200]},{"type":"Point","properties":{"Zip Code":24122,"Name":"Montvale","State":"VA","Locality":"Bedford"},"coordinates":[4656,3011]},{"type":"Point","properties":{"Zip Code":24124,"Name":"Narrows","State":"VA","Locality":"Giles"},"coordinates":[3258,2702]},{"type":"Point","properties":{"Zip Code":24126,"Name":"Newbern","State":"VA","Locality":"Pulaski"},"coordinates":[3459,1827]},{"type":"Point","properties":{"Zip Code":24127,"Name":"New Castle","State":"VA","Locality":"Craig"},"coordinates":[4099,3295]},{"type":"Point","properties":{"Zip Code":24128,"Name":"Newport","State":"VA","Locality":"Giles"},"coordinates":[3682,2655]},{"type":"Point","properties":{"Zip Code":24129,"Name":"New River","State":"VA","Locality":"Pulaski"},"coordinates":[3581,2040]},{"type":"Point","properties":{"Zip Code":24130,"Name":"Oriskany","State":"VA","Locality":"Botetourt"},"coordinates":[4328,3754]},{"type":"Point","properties":{"Zip Code":24131,"Name":"Paint Bank","State":"VA","Locality":"Craig"},"coordinates":[3996,3605]},{"type":"Point","properties":{"Zip Code":24132,"Name":"Parrott","State":"VA","Locality":"Pulaski"},"coordinates":[3552,2294]},{"type":"Point","properties":{"Zip Code":24133,"Name":"Patrick Springs","State":"VA","Locality":"Patrick"},"coordinates":[4138,411]},{"type":"Point","properties":{"Zip Code":24134,"Name":"Pearisburg","State":"VA","Locality":"Giles"},"coordinates":[3415,2646]},{"type":"Point","properties":{"Zip Code":24136,"Name":"Pembroke","State":"VA","Locality":"Giles"},"coordinates":[3552,2739]},{"type":"Point","properties":{"Zip Code":24137,"Name":"Penhook","State":"VA","Locality":"Franklin"},"coordinates":[4721,1283]},{"type":"Point","properties":{"Zip Code":24138,"Name":"Pilot","State":"VA","Locality":"Montgomery"},"coordinates":[3912,1767]},{"type":"Point","properties":{"Zip Code":24139,"Name":"Pittsville","State":"VA","Locality":"Pittsylvania"},"coordinates":[4949,1466]},{"type":"Point","properties":{"Zip Code":24141,"Name":"Radford","State":"VA","Locality":"Radford"},"coordinates":[3606,2049]},{"type":"Point","properties":{"Zip Code":24142,"Name":"Radford","State":"VA","Locality":"Radford"},"coordinates":[3635,2059]},{"type":"Point","properties":{"Zip Code":24143,"Name":"Radford","State":"VA","Locality":"Radford"},"coordinates":[3623,2065]},{"type":"Point","properties":{"Zip Code":24146,"Name":"Redwood","State":"VA","Locality":"Franklin"},"coordinates":[4540,1637]},{"type":"Point","properties":{"Zip Code":24147,"Name":"Rich Creek","State":"VA","Locality":"Giles"},"coordinates":[3297,2933]},{"type":"Point","properties":{"Zip Code":24148,"Name":"Ridgeway","State":"VA","Locality":"Henry"},"coordinates":[4470,102]},{"type":"Point","properties":{"Zip Code":24149,"Name":"Riner","State":"VA","Locality":"Montgomery"},"coordinates":[3773,1681]},{"type":"Point","properties":{"Zip Code":24150,"Name":"Ripplemead","State":"VA","Locality":"Giles"},"coordinates":[3483,2867]},{"type":"Point","properties":{"Zip Code":24151,"Name":"Rocky Mount","State":"VA","Locality":"Franklin"},"coordinates":[4451,1528]},{"type":"Point","properties":{"Zip Code":24153,"Name":"Salem","State":"VA","Locality":"Salem"},"coordinates":[4224,2579]},{"type":"Point","properties":{"Zip Code":24155,"Name":"Roanoke","State":"VA","Locality":"Salem"},"coordinates":[4241,2608]},{"type":"Point","properties":{"Zip Code":24157,"Name":"Roanoke","State":"VA","Locality":"Salem"},"coordinates":[4229,2600]},{"type":"Point","properties":{"Zip Code":24161,"Name":"Sandy Level","State":"VA","Locality":"Pittsylvania"},"coordinates":[4848,1535]},{"type":"Point","properties":{"Zip Code":24162,"Name":"Shawsville","State":"VA","Locality":"Montgomery"},"coordinates":[3975,2087]},{"type":"Point","properties":{"Zip Code":24165,"Name":"Spencer","State":"VA","Locality":"Henry"},"coordinates":[4263,136]},{"type":"Point","properties":{"Zip Code":24167,"Name":"Staffordsville","State":"VA","Locality":"Giles"},"coordinates":[3399,2437]},{"type":"Point","properties":{"Zip Code":24168,"Name":"Stanleytown","State":"VA","Locality":"Henry"},"coordinates":[4388,625]},{"type":"Point","properties":{"Zip Code":24171,"Name":"Stuart","State":"VA","Locality":"Patrick"},"coordinates":[4015,331]},{"type":"Point","properties":{"Zip Code":24174,"Name":"Thaxton","State":"VA","Locality":"Bedford"},"coordinates":[4736,2844]},{"type":"Point","properties":{"Zip Code":24175,"Name":"Troutville","State":"VA","Locality":"Botetourt"},"coordinates":[4458,2993]},{"type":"Point","properties":{"Zip Code":24176,"Name":"Union Hall","State":"VA","Locality":"Franklin"},"coordinates":[4694,1613]},{"type":"Point","properties":{"Zip Code":24177,"Name":"Vesta","State":"VA","Locality":"Patrick"},"coordinates":[3868,561]},{"type":"Point","properties":{"Zip Code":24178,"Name":"Villamont","State":"VA","Locality":"Bedford"},"coordinates":[4584,2969]},{"type":"Point","properties":{"Zip Code":24179,"Name":"Vinton","State":"VA","Locality":"Roanoke"},"coordinates":[4511,2529]},{"type":"Point","properties":{"Zip Code":24184,"Name":"Wirtz","State":"VA","Locality":"Franklin"},"coordinates":[4607,1857]},{"type":"Point","properties":{"Zip Code":24185,"Name":"Woolwine","State":"VA","Locality":"Patrick"},"coordinates":[3968,829]},{"type":"Point","properties":{"Zip Code":24201,"Name":"Bristol","State":"VA","Locality":"Bristol"},"coordinates":[1626,211]},{"type":"Point","properties":{"Zip Code":24202,"Name":"Bristol","State":"VA","Locality":"Washington"},"coordinates":[1654,305]},{"type":"Point","properties":{"Zip Code":24203,"Name":"Bristol","State":"VA","Locality":"Bristol"},"coordinates":[1618,134]},{"type":"Point","properties":{"Zip Code":24209,"Name":"Bristol","State":"VA","Locality":"Bristol"},"coordinates":[1618,134]},{"type":"Point","properties":{"Zip Code":24210,"Name":"Abingdon","State":"VA","Locality":"Washington"},"coordinates":[1825,472]},{"type":"Point","properties":{"Zip Code":24211,"Name":"Abingdon","State":"VA","Locality":"Washington"},"coordinates":[1895,371]},{"type":"Point","properties":{"Zip Code":24212,"Name":"Abingdon","State":"VA","Locality":"Washington"},"coordinates":[1878,536]},{"type":"Point","properties":{"Zip Code":24215,"Name":"Andover","State":"VA","Locality":"Wise"},"coordinates":[870,1295]},{"type":"Point","properties":{"Zip Code":24216,"Name":"Appalachia","State":"VA","Locality":"Wise"},"coordinates":[877,1233]},{"type":"Point","properties":{"Zip Code":24217,"Name":"Bee","State":"VA","Locality":"Dickenson"},"coordinates":[1622,1926]},{"type":"Point","properties":{"Zip Code":24218,"Name":"Ben Hur","State":"VA","Locality":"Lee"},"coordinates":[519,618]},{"type":"Point","properties":{"Zip Code":24219,"Name":"Big Stone Gap","State":"VA","Locality":"Wise"},"coordinates":[912,1063]},{"type":"Point","properties":{"Zip Code":24220,"Name":"Birchleaf","State":"VA","Locality":"Dickenson"},"coordinates":[1545,2168]},{"type":"Point","properties":{"Zip Code":24221,"Name":"Blackwater","State":"VA","Locality":"Lee"},"coordinates":[637,286]},{"type":"Point","properties":{"Zip Code":24224,"Name":"Castlewood","State":"VA","Locality":"Russell"},"coordinates":[1496,1128]},{"type":"Point","properties":{"Zip Code":24225,"Name":"Cleveland","State":"VA","Locality":"Russell"},"coordinates":[1688,1390]},{"type":"Point","properties":{"Zip Code":24226,"Name":"Clinchco","State":"VA","Locality":"Dickenson"},"coordinates":[1429,2065]},{"type":"Point","properties":{"Zip Code":24228,"Name":"Clintwood","State":"VA","Locality":"Dickenson"},"coordinates":[1302,2132]},{"type":"Point","properties":{"Zip Code":24230,"Name":"Coeburn","State":"VA","Locality":"Wise"},"coordinates":[1268,1426]},{"type":"Point","properties":{"Zip Code":24236,"Name":"Damascus","State":"VA","Locality":"Washington"},"coordinates":[2123,290]},{"type":"Point","properties":{"Zip Code":24237,"Name":"Dante","State":"VA","Locality":"Russell"},"coordinates":[1504,1586]},{"type":"Point","properties":{"Zip Code":24239,"Name":"Davenport","State":"VA","Locality":"Buchanan"},"coordinates":[1699,1808]},{"type":"Point","properties":{"Zip Code":24243,"Name":"Dryden","State":"VA","Locality":"Lee"},"coordinates":[706,792]},{"type":"Point","properties":{"Zip Code":24244,"Name":"Duffield","State":"VA","Locality":"Scott"},"coordinates":[858,518]},{"type":"Point","properties":{"Zip Code":24245,"Name":"Dungannon","State":"VA","Locality":"Scott"},"coordinates":[1240,943]},{"type":"Point","properties":{"Zip Code":24246,"Name":"East Stone Gap","State":"VA","Locality":"Wise"},"coordinates":[937,1093]},{"type":"Point","properties":{"Zip Code":24248,"Name":"Ewing","State":"VA","Locality":"Lee"},"coordinates":[0,231]},{"type":"Point","properties":{"Zip Code":24250,"Name":"Fort Blackmore","State":"VA","Locality":"Scott"},"coordinates":[1100,657]},{"type":"Point","properties":{"Zip Code":24251,"Name":"Gate City","State":"VA","Locality":"Scott"},"coordinates":[1099,310]},{"type":"Point","properties":{"Zip Code":24256,"Name":"Haysi","State":"VA","Locality":"Dickenson"},"coordinates":[1499,2349]},{"type":"Point","properties":{"Zip Code":24258,"Name":"Hiltons","State":"VA","Locality":"Scott"},"coordinates":[1321,324]},{"type":"Point","properties":{"Zip Code":24260,"Name":"Honaker","State":"VA","Locality":"Russell"},"coordinates":[1854,1663]},{"type":"Point","properties":{"Zip Code":24263,"Name":"Jonesville","State":"VA","Locality":"Lee"},"coordinates":[453,465]},{"type":"Point","properties":{"Zip Code":24265,"Name":"Keokee","State":"VA","Locality":"Lee"},"coordinates":[649,942]},{"type":"Point","properties":{"Zip Code":24266,"Name":"Lebanon","State":"VA","Locality":"Russell"},"coordinates":[1732,1144]},{"type":"Point","properties":{"Zip Code":24269,"Name":"Mc Clure","State":"VA","Locality":"Dickenson"},"coordinates":[1382,1855]},{"type":"Point","properties":{"Zip Code":24270,"Name":"Mendota","State":"VA","Locality":"Washington"},"coordinates":[1524,581]},{"type":"Point","properties":{"Zip Code":24271,"Name":"Nickelsville","State":"VA","Locality":"Scott"},"coordinates":[1333,680]},{"type":"Point","properties":{"Zip Code":24272,"Name":"Nora","State":"VA","Locality":"Dickenson"},"coordinates":[1420,1631]},{"type":"Point","properties":{"Zip Code":24273,"Name":"Norton","State":"VA","Locality":"Norton City"},"coordinates":[1082,1346]},{"type":"Point","properties":{"Zip Code":24277,"Name":"Pennington Gap","State":"VA","Locality":"Lee"},"coordinates":[593,682]},{"type":"Point","properties":{"Zip Code":24279,"Name":"Pound","State":"VA","Locality":"Wise"},"coordinates":[1110,1896]},{"type":"Point","properties":{"Zip Code":24280,"Name":"Rosedale","State":"VA","Locality":"Russell"},"coordinates":[1987,1474]},{"type":"Point","properties":{"Zip Code":24281,"Name":"Rose Hill","State":"VA","Locality":"Lee"},"coordinates":[192,354]},{"type":"Point","properties":{"Zip Code":24282,"Name":"Saint Charles","State":"VA","Locality":"Lee"},"coordinates":[557,969]},{"type":"Point","properties":{"Zip Code":24283,"Name":"Saint Paul","State":"VA","Locality":"Wise"},"coordinates":[1430,1326]},{"type":"Point","properties":{"Zip Code":24290,"Name":"Weber City","State":"VA","Locality":"Scott"},"coordinates":[1180,219]},{"type":"Point","properties":{"Zip Code":24292,"Name":"Whitetop","State":"VA","Locality":"Grayson"},"coordinates":[2361,185]},{"type":"Point","properties":{"Zip Code":24293,"Name":"Wise","State":"VA","Locality":"Wise"},"coordinates":[1119,1478]},{"type":"Point","properties":{"Zip Code":24301,"Name":"Pulaski","State":"VA","Locality":"Pulaski"},"coordinates":[3361,1768]},{"type":"Point","properties":{"Zip Code":24311,"Name":"Atkins","State":"VA","Locality":"Smyth"},"coordinates":[2582,1093]},{"type":"Point","properties":{"Zip Code":24312,"Name":"Austinville","State":"VA","Locality":"Wythe"},"coordinates":[3253,926]},{"type":"Point","properties":{"Zip Code":24313,"Name":"Barren Springs","State":"VA","Locality":"Wythe"},"coordinates":[3314,1239]},{"type":"Point","properties":{"Zip Code":24314,"Name":"Bastian","State":"VA","Locality":"Bland"},"coordinates":[2835,2125]},{"type":"Point","properties":{"Zip Code":24315,"Name":"Bland","State":"VA","Locality":"Bland"},"coordinates":[3055,2055]},{"type":"Point","properties":{"Zip Code":24316,"Name":"Broadford","State":"VA","Locality":"Tazewell"},"coordinates":[2269,1329]},{"type":"Point","properties":{"Zip Code":24317,"Name":"Cana","State":"VA","Locality":"Carroll"},"coordinates":[3484,132]},{"type":"Point","properties":{"Zip Code":24318,"Name":"Ceres","State":"VA","Locality":"Bland"},"coordinates":[2631,1583]},{"type":"Point","properties":{"Zip Code":24319,"Name":"Chilhowie","State":"VA","Locality":"Smyth"},"coordinates":[2262,757]},{"type":"Point","properties":{"Zip Code":24322,"Name":"Cripple Creek","State":"VA","Locality":"Wythe"},"coordinates":[2952,887]},{"type":"Point","properties":{"Zip Code":24323,"Name":"Crockett","State":"VA","Locality":"Wythe"},"coordinates":[2822,1129]},{"type":"Point","properties":{"Zip Code":24324,"Name":"Draper","State":"VA","Locality":"Pulaski"},"coordinates":[3302,1459]},{"type":"Point","properties":{"Zip Code":24325,"Name":"Dugspur","State":"VA","Locality":"Carroll"},"coordinates":[3556,908]},{"type":"Point","properties":{"Zip Code":24326,"Name":"Elk Creek","State":"VA","Locality":"Grayson"},"coordinates":[2844,610]},{"type":"Point","properties":{"Zip Code":24327,"Name":"Emory","State":"VA","Locality":"Washington"},"coordinates":[2051,760]},{"type":"Point","properties":{"Zip Code":24328,"Name":"Fancy Gap","State":"VA","Locality":"Carroll"},"coordinates":[3459,374]},{"type":"Point","properties":{"Zip Code":24330,"Name":"Fries","State":"VA","Locality":"Grayson"},"coordinates":[3074,590]},{"type":"Point","properties":{"Zip Code":24333,"Name":"Galax","State":"VA","Locality":"Galax City"},"coordinates":[3188,348]},{"type":"Point","properties":{"Zip Code":24340,"Name":"Glade Spring","State":"VA","Locality":"Washington"},"coordinates":[2136,778]},{"type":"Point","properties":{"Zip Code":24343,"Name":"Hillsville","State":"VA","Locality":"Carroll"},"coordinates":[3424,659]},{"type":"Point","properties":{"Zip Code":24347,"Name":"Hiwassee","State":"VA","Locality":"Pulaski"},"coordinates":[3524,1559]},{"type":"Point","properties":{"Zip Code":24348,"Name":"Independence","State":"VA","Locality":"Grayson"},"coordinates":[2885,252]},{"type":"Point","properties":{"Zip Code":24350,"Name":"Ivanhoe","State":"VA","Locality":"Wythe"},"coordinates":[3106,953]},{"type":"Point","properties":{"Zip Code":24351,"Name":"Lambsburg","State":"VA","Locality":"Carroll"},"coordinates":[3374,67]},{"type":"Point","properties":{"Zip Code":24352,"Name":"Laurel Fork","State":"VA","Locality":"Carroll"},"coordinates":[3676,528]},{"type":"Point","properties":{"Zip Code":24354,"Name":"Marion","State":"VA","Locality":"Smyth"},"coordinates":[2422,954]},{"type":"Point","properties":{"Zip Code":24360,"Name":"Max Meadows","State":"VA","Locality":"Wythe"},"coordinates":[3176,1272]},{"type":"Point","properties":{"Zip Code":24361,"Name":"Meadowview","State":"VA","Locality":"Washington"},"coordinates":[2033,719]},{"type":"Point","properties":{"Zip Code":24363,"Name":"Mouth Of Wilson","State":"VA","Locality":"Grayson"},"coordinates":[2593,184]},{"type":"Point","properties":{"Zip Code":24366,"Name":"Rocky Gap","State":"VA","Locality":"Bland"},"coordinates":[2888,2433]},{"type":"Point","properties":{"Zip Code":24368,"Name":"Rural Retreat","State":"VA","Locality":"Wythe"},"coordinates":[2725,1154]},{"type":"Point","properties":{"Zip Code":24370,"Name":"Saltville","State":"VA","Locality":"Smyth"},"coordinates":[2169,1186]},{"type":"Point","properties":{"Zip Code":24374,"Name":"Speedwell","State":"VA","Locality":"Wythe"},"coordinates":[2854,856]},{"type":"Point","properties":{"Zip Code":24375,"Name":"Sugar Grove","State":"VA","Locality":"Smyth"},"coordinates":[2577,763]},{"type":"Point","properties":{"Zip Code":24377,"Name":"Tannersville","State":"VA","Locality":"Tazewell"},"coordinates":[2307,1483]},{"type":"Point","properties":{"Zip Code":24378,"Name":"Troutdale","State":"VA","Locality":"Grayson"},"coordinates":[2544,450]},{"type":"Point","properties":{"Zip Code":24380,"Name":"Willis","State":"VA","Locality":"Floyd"},"coordinates":[3705,1123]},{"type":"Point","properties":{"Zip Code":24381,"Name":"Woodlawn","State":"VA","Locality":"Carroll"},"coordinates":[3224,814]},{"type":"Point","properties":{"Zip Code":24382,"Name":"Wytheville","State":"VA","Locality":"Wythe"},"coordinates":[2964,1356]},{"type":"Point","properties":{"Zip Code":24401,"Name":"Staunton","State":"VA","Locality":"Staunton City"},"coordinates":[5446,5630]},{"type":"Point","properties":{"Zip Code":24402,"Name":"Staunton","State":"VA","Locality":"Staunton City"},"coordinates":[5450,5646]},{"type":"Point","properties":{"Zip Code":24411,"Name":"Augusta Springs","State":"VA","Locality":"Augusta"},"coordinates":[5147,5477]},{"type":"Point","properties":{"Zip Code":24412,"Name":"Bacova","State":"VA","Locality":"Bath"},"coordinates":[4501,5306]},{"type":"Point","properties":{"Zip Code":24413,"Name":"Blue Grass","State":"VA","Locality":"Highland"},"coordinates":[4848,6944]},{"type":"Point","properties":{"Zip Code":24415,"Name":"Brownsburg","State":"VA","Locality":"Rockbridge"},"coordinates":[5145,4861]},{"type":"Point","properties":{"Zip Code":24416,"Name":"Buena Vista","State":"VA","Locality":"Buena Vista City"},"coordinates":[5105,4191]},{"type":"Point","properties":{"Zip Code":24421,"Name":"Churchville","State":"VA","Locality":"Augusta"},"coordinates":[5318,5948]},{"type":"Point","properties":{"Zip Code":24422,"Name":"Clifton Forge","State":"VA","Locality":"Alleghany"},"coordinates":[4548,4478]},{"type":"Point","properties":{"Zip Code":24426,"Name":"Covington","State":"VA","Locality":"Covington City"},"coordinates":[4305,4349]},{"type":"Point","properties":{"Zip Code":24430,"Name":"Craigsville","State":"VA","Locality":"Augusta"},"coordinates":[5093,5388]},{"type":"Point","properties":{"Zip Code":24431,"Name":"Crimora","State":"VA","Locality":"Augusta"},"coordinates":[5733,5713]},{"type":"Point","properties":{"Zip Code":24432,"Name":"Deerfield","State":"VA","Locality":"Augusta"},"coordinates":[5028,5769]},{"type":"Point","properties":{"Zip Code":24433,"Name":"Doe Hill","State":"VA","Locality":"Highland"},"coordinates":[4945,6500]},{"type":"Point","properties":{"Zip Code":24435,"Name":"Fairfield","State":"VA","Locality":"Rockbridge"},"coordinates":[5172,4682]},{"type":"Point","properties":{"Zip Code":24437,"Name":"Fort Defiance","State":"VA","Locality":"Augusta"},"coordinates":[5621,5864]},{"type":"Point","properties":{"Zip Code":24438,"Name":"Glen Wilton","State":"VA","Locality":"Botetourt"},"coordinates":[4531,4238]},{"type":"Point","properties":{"Zip Code":24439,"Name":"Goshen","State":"VA","Locality":"Rockbridge"},"coordinates":[4951,5072]},{"type":"Point","properties":{"Zip Code":24440,"Name":"Greenville","State":"VA","Locality":"Augusta"},"coordinates":[5371,5122]},{"type":"Point","properties":{"Zip Code":24441,"Name":"Grottoes","State":"VA","Locality":"Rockingham"},"coordinates":[5753,5997]},{"type":"Point","properties":{"Zip Code":24442,"Name":"Head Waters","State":"VA","Locality":"Highland"},"coordinates":[5003,6161]},{"type":"Point","properties":{"Zip Code":24445,"Name":"Hot Springs","State":"VA","Locality":"Bath"},"coordinates":[4466,4987]},{"type":"Point","properties":{"Zip Code":24448,"Name":"Iron Gate","State":"VA","Locality":"Alleghany"},"coordinates":[4565,4397]},{"type":"Point","properties":{"Zip Code":24450,"Name":"Lexington","State":"VA","Locality":"Lexington City"},"coordinates":[4975,4365]},{"type":"Point","properties":{"Zip Code":24457,"Name":"Low Moor","State":"VA","Locality":"Alleghany"},"coordinates":[4451,4365]},{"type":"Point","properties":{"Zip Code":24458,"Name":"Mc Dowell","State":"VA","Locality":"Highland"},"coordinates":[4925,6274]},{"type":"Point","properties":{"Zip Code":24459,"Name":"Middlebrook","State":"VA","Locality":"Augusta"},"coordinates":[5192,5201]},{"type":"Point","properties":{"Zip Code":24460,"Name":"Millboro","State":"VA","Locality":"Bath"},"coordinates":[4750,5136]},{"type":"Point","properties":{"Zip Code":24463,"Name":"Mint Spring","State":"VA","Locality":"Augusta"},"coordinates":[5414,5379]},{"type":"Point","properties":{"Zip Code":24464,"Name":"Montebello","State":"VA","Locality":"Nelson"},"coordinates":[5463,4547]},{"type":"Point","properties":{"Zip Code":24465,"Name":"Monterey","State":"VA","Locality":"Highland"},"coordinates":[4808,6555]},{"type":"Point","properties":{"Zip Code":24467,"Name":"Mount Sidney","State":"VA","Locality":"Augusta"},"coordinates":[5571,6042]},{"type":"Point","properties":{"Zip Code":24468,"Name":"Mustoe","State":"VA","Locality":"Highland"},"coordinates":[4728,6131]},{"type":"Point","properties":{"Zip Code":24469,"Name":"New Hope","State":"VA","Locality":"Augusta"},"coordinates":[5653,5817]},{"type":"Point","properties":{"Zip Code":24471,"Name":"Port Republic","State":"VA","Locality":"Rockingham"},"coordinates":[5771,6241]},{"type":"Point","properties":{"Zip Code":24472,"Name":"Raphine","State":"VA","Locality":"Rockbridge"},"coordinates":[5265,4893]},{"type":"Point","properties":{"Zip Code":24473,"Name":"Rockbridge Baths","State":"VA","Locality":"Rockbridge"},"coordinates":[5062,4748]},{"type":"Point","properties":{"Zip Code":24474,"Name":"Selma","State":"VA","Locality":"Alleghany"},"coordinates":[4495,4428]},{"type":"Point","properties":{"Zip Code":24476,"Name":"Steeles Tavern","State":"VA","Locality":"Augusta"},"coordinates":[5289,4851]},{"type":"Point","properties":{"Zip Code":24477,"Name":"Stuarts Draft","State":"VA","Locality":"Augusta"},"coordinates":[5501,5166]},{"type":"Point","properties":{"Zip Code":24479,"Name":"Swoope","State":"VA","Locality":"Augusta"},"coordinates":[5308,5680]},{"type":"Point","properties":{"Zip Code":24482,"Name":"Verona","State":"VA","Locality":"Augusta"},"coordinates":[5531,5838]},{"type":"Point","properties":{"Zip Code":24483,"Name":"Vesuvius","State":"VA","Locality":"Rockbridge"},"coordinates":[5276,4540]},{"type":"Point","properties":{"Zip Code":24484,"Name":"Warm Springs","State":"VA","Locality":"Bath"},"coordinates":[4545,5417]},{"type":"Point","properties":{"Zip Code":24485,"Name":"West Augusta","State":"VA","Locality":"Augusta"},"coordinates":[5144,6089]},{"type":"Point","properties":{"Zip Code":24486,"Name":"Weyers Cave","State":"VA","Locality":"Augusta"},"coordinates":[5632,6156]},{"type":"Point","properties":{"Zip Code":24487,"Name":"Williamsville","State":"VA","Locality":"Bath"},"coordinates":[4738,5747]},{"type":"Point","properties":{"Zip Code":24501,"Name":"Lynchburg","State":"VA","Locality":"Lynchburg City"},"coordinates":[5327,2937]},{"type":"Point","properties":{"Zip Code":24502,"Name":"Lynchburg","State":"VA","Locality":"Lynchburg City"},"coordinates":[5278,2843]},{"type":"Point","properties":{"Zip Code":24503,"Name":"Lynchburg","State":"VA","Locality":"Lynchburg City"},"coordinates":[5286,3120]},{"type":"Point","properties":{"Zip Code":24504,"Name":"Lynchburg","State":"VA","Locality":"Lynchburg City"},"coordinates":[5389,2952]},{"type":"Point","properties":{"Zip Code":24505,"Name":"Lynchburg","State":"VA","Locality":"Lynchburg City"},"coordinates":[5362,3038]},{"type":"Point","properties":{"Zip Code":24506,"Name":"Lynchburg","State":"VA","Locality":"Lynchburg City"},"coordinates":[5341,2916]},{"type":"Point","properties":{"Zip Code":24512,"Name":"Lynchburg","State":"VA","Locality":"Lynchburg City"},"coordinates":[5231,3164]},{"type":"Point","properties":{"Zip Code":24513,"Name":"Lynchburg","State":"VA","Locality":"Lynchburg City"},"coordinates":[5341,2916]},{"type":"Point","properties":{"Zip Code":24514,"Name":"Lynchburg","State":"VA","Locality":"Lynchburg City"},"coordinates":[5341,2916]},{"type":"Point","properties":{"Zip Code":24515,"Name":"Lynchburg","State":"VA","Locality":"Lynchburg City"},"coordinates":[5341,2916]},{"type":"Point","properties":{"Zip Code":24517,"Name":"Altavista","State":"VA","Locality":"Campbell"},"coordinates":[5180,2000]},{"type":"Point","properties":{"Zip Code":24520,"Name":"Alton","State":"VA","Locality":"Halifax"},"coordinates":[5513,109]},{"type":"Point","properties":{"Zip Code":24521,"Name":"Amherst","State":"VA","Locality":"Amherst"},"coordinates":[5476,3705]},{"type":"Point","properties":{"Zip Code":24522,"Name":"Appomattox","State":"VA","Locality":"Appomattox"},"coordinates":[5756,2819]},{"type":"Point","properties":{"Zip Code":24523,"Name":"Bedford","State":"VA","Locality":"Bedford"},"coordinates":[4883,2686]},{"type":"Point","properties":{"Zip Code":24526,"Name":"Big Island","State":"VA","Locality":"Bedford"},"coordinates":[5068,3449]},{"type":"Point","properties":{"Zip Code":24527,"Name":"Blairs","State":"VA","Locality":"Pittsylvania"},"coordinates":[5072,386]},{"type":"Point","properties":{"Zip Code":24528,"Name":"Brookneal","State":"VA","Locality":"Campbell"},"coordinates":[5633,1860]},{"type":"Point","properties":{"Zip Code":24529,"Name":"Buffalo Junction","State":"VA","Locality":"Mecklenburg"},"coordinates":[6018,207]},{"type":"Point","properties":{"Zip Code":24530,"Name":"Callands","State":"VA","Locality":"Pittsylvania"},"coordinates":[4765,732]},{"type":"Point","properties":{"Zip Code":24531,"Name":"Chatham","State":"VA","Locality":"Pittsylvania"},"coordinates":[5010,967]},{"type":"Point","properties":{"Zip Code":24533,"Name":"Clifford","State":"VA","Locality":"Amherst"},"coordinates":[5510,3850]},{"type":"Point","properties":{"Zip Code":24534,"Name":"Clover","State":"VA","Locality":"Halifax"},"coordinates":[5801,1083]},{"type":"Point","properties":{"Zip Code":24535,"Name":"Cluster Springs","State":"VA","Locality":"Halifax"},"coordinates":[5634,221]},{"type":"Point","properties":{"Zip Code":24536,"Name":"Coleman Falls","State":"VA","Locality":"Bedford"},"coordinates":[5150,3301]},{"type":"Point","properties":{"Zip Code":24538,"Name":"Concord","State":"VA","Locality":"Campbell"},"coordinates":[5562,2762]},{"type":"Point","properties":{"Zip Code":24539,"Name":"Crystal Hill","State":"VA","Locality":"Halifax"},"coordinates":[5574,1117]},{"type":"Point","properties":{"Zip Code":24540,"Name":"Danville","State":"VA","Locality":"Danville City"},"coordinates":[5031,224]},{"type":"Point","properties":{"Zip Code":24541,"Name":"Danville","State":"VA","Locality":"Danville City"},"coordinates":[4996,69]},{"type":"Point","properties":{"Zip Code":24543,"Name":"Danville","State":"VA","Locality":"Danville City"},"coordinates":[5050,91]},{"type":"Point","properties":{"Zip Code":24544,"Name":"Danville","State":"VA","Locality":"Danville City"},"coordinates":[5050,91]},{"type":"Point","properties":{"Zip Code":24549,"Name":"Dry Fork","State":"VA","Locality":"Pittsylvania"},"coordinates":[4975,655]},{"type":"Point","properties":{"Zip Code":24550,"Name":"Evington","State":"VA","Locality":"Campbell"},"coordinates":[5253,2493]},{"type":"Point","properties":{"Zip Code":24551,"Name":"Forest","State":"VA","Locality":"Bedford"},"coordinates":[5195,2766]},{"type":"Point","properties":{"Zip Code":24553,"Name":"Gladstone","State":"VA","Locality":"Nelson"},"coordinates":[5721,3509]},{"type":"Point","properties":{"Zip Code":24554,"Name":"Gladys","State":"VA","Locality":"Campbell"},"coordinates":[5409,2058]},{"type":"Point","properties":{"Zip Code":24555,"Name":"Glasgow","State":"VA","Locality":"Rockbridge"},"coordinates":[4974,3848]},{"type":"Point","properties":{"Zip Code":24556,"Name":"Goode","State":"VA","Locality":"Bedford"},"coordinates":[5069,2802]},{"type":"Point","properties":{"Zip Code":24557,"Name":"Gretna","State":"VA","Locality":"Pittsylvania"},"coordinates":[5121,1458]},{"type":"Point","properties":{"Zip Code":24558,"Name":"Halifax","State":"VA","Locality":"Halifax"},"coordinates":[5610,724]},{"type":"Point","properties":{"Zip Code":24562,"Name":"Howardsville","State":"VA","Locality":"Buckingham"},"coordinates":[6051,4284]},{"type":"Point","properties":{"Zip Code":24563,"Name":"Hurt","State":"VA","Locality":"Pittsylvania"},"coordinates":[5169,1850]},{"type":"Point","properties":{"Zip Code":24565,"Name":"Java","State":"VA","Locality":"Pittsylvania"},"coordinates":[5308,1065]},{"type":"Point","properties":{"Zip Code":24566,"Name":"Keeling","State":"VA","Locality":"Pittsylvania"},"coordinates":[5196,557]},{"type":"Point","properties":{"Zip Code":24569,"Name":"Long Island","State":"VA","Locality":"Pittsylvania"},"coordinates":[5388,1795]},{"type":"Point","properties":{"Zip Code":24570,"Name":"Lowry","State":"VA","Locality":"Bedford"},"coordinates":[4978,2750]},{"type":"Point","properties":{"Zip Code":24571,"Name":"Lynch Station","State":"VA","Locality":"Campbell"},"coordinates":[5133,2109]},{"type":"Point","properties":{"Zip Code":24572,"Name":"Madison Heights","State":"VA","Locality":"Amherst"},"coordinates":[5398,3174]},{"type":"Point","properties":{"Zip Code":24574,"Name":"Monroe","State":"VA","Locality":"Amherst"},"coordinates":[5329,3488]},{"type":"Point","properties":{"Zip Code":24576,"Name":"Naruna","State":"VA","Locality":"Campbell"},"coordinates":[5535,1942]},{"type":"Point","properties":{"Zip Code":24577,"Name":"Nathalie","State":"VA","Locality":"Halifax"},"coordinates":[5551,1368]},{"type":"Point","properties":{"Zip Code":24578,"Name":"Natural Bridge","State":"VA","Locality":"Rockbridge"},"coordinates":[4883,3911]},{"type":"Point","properties":{"Zip Code":24579,"Name":"Natural Bridge Station","State":"VA","Locality":"Rockbridge"},"coordinates":[4919,3680]},{"type":"Point","properties":{"Zip Code":24580,"Name":"Nelson","State":"VA","Locality":"Mecklenburg"},"coordinates":[5943,0]},{"type":"Point","properties":{"Zip Code":24581,"Name":"Norwood","State":"VA","Locality":"Nelson"},"coordinates":[5773,3849]},{"type":"Point","properties":{"Zip Code":24586,"Name":"Ringgold","State":"VA","Locality":"Pittsylvania"},"coordinates":[5171,159]},{"type":"Point","properties":{"Zip Code":24588,"Name":"Rustburg","State":"VA","Locality":"Campbell"},"coordinates":[5389,2470]},{"type":"Point","properties":{"Zip Code":24589,"Name":"Scottsburg","State":"VA","Locality":"Halifax"},"coordinates":[5800,808]},{"type":"Point","properties":{"Zip Code":24590,"Name":"Scottsville","State":"VA","Locality":"Albemarle"},"coordinates":[6185,4423]},{"type":"Point","properties":{"Zip Code":24592,"Name":"South Boston","State":"VA","Locality":"Halifax"},"coordinates":[5638,489]},{"type":"Point","properties":{"Zip Code":24593,"Name":"Spout Spring","State":"VA","Locality":"Appomattox"},"coordinates":[5654,2860]},{"type":"Point","properties":{"Zip Code":24594,"Name":"Sutherlin","State":"VA","Locality":"Pittsylvania"},"coordinates":[5298,239]},{"type":"Point","properties":{"Zip Code":24595,"Name":"Sweet Briar","State":"VA","Locality":"Amherst"},"coordinates":[5456,3528]},{"type":"Point","properties":{"Zip Code":24597,"Name":"Vernon Hill","State":"VA","Locality":"Halifax"},"coordinates":[5402,810]},{"type":"Point","properties":{"Zip Code":24598,"Name":"Virgilina","State":"VA","Locality":"Halifax"},"coordinates":[5832,169]},{"type":"Point","properties":{"Zip Code":24599,"Name":"Wingina","State":"VA","Locality":"Buckingham"},"coordinates":[5838,3843]},{"type":"Point","properties":{"Zip Code":24601,"Name":"Amonate","State":"VA","Locality":"Tazewell"},"coordinates":[2294,2244]},{"type":"Point","properties":{"Zip Code":24602,"Name":"Bandy","State":"VA","Locality":"Tazewell"},"coordinates":[2279,2156]},{"type":"Point","properties":{"Zip Code":24603,"Name":"Big Rock","State":"VA","Locality":"Buchanan"},"coordinates":[1574,2697]},{"type":"Point","properties":{"Zip Code":24604,"Name":"Bishop","State":"VA","Locality":"Tazewell"},"coordinates":[2393,2307]},{"type":"Point","properties":{"Zip Code":24605,"Name":"Bluefield","State":"VA","Locality":"Tazewell"},"coordinates":[2680,2452]},{"type":"Point","properties":{"Zip Code":24606,"Name":"Boissevain","State":"VA","Locality":"Tazewell"},"coordinates":[2611,2566]},{"type":"Point","properties":{"Zip Code":24607,"Name":"Breaks","State":"VA","Locality":"Dickenson"},"coordinates":[1504,2616]},{"type":"Point","properties":{"Zip Code":24608,"Name":"Burkes Garden","State":"VA","Locality":"Tazewell"},"coordinates":[2660,1915]},{"type":"Point","properties":{"Zip Code":24609,"Name":"Cedar Bluff","State":"VA","Locality":"Tazewell"},"coordinates":[2137,1847]},{"type":"Point","properties":{"Zip Code":24612,"Name":"Doran","State":"VA","Locality":"Tazewell"},"coordinates":[2054,1895]},{"type":"Point","properties":{"Zip Code":24613,"Name":"Falls Mills","State":"VA","Locality":"Tazewell"},"coordinates":[2688,2528]},{"type":"Point","properties":{"Zip Code":24614,"Name":"Grundy","State":"VA","Locality":"Buchanan"},"coordinates":[1719,2619]},{"type":"Point","properties":{"Zip Code":24619,"Name":"Horsepen","State":"VA","Locality":"Tazewell"},"coordinates":[2440,2376]},{"type":"Point","properties":{"Zip Code":24620,"Name":"Hurley","State":"VA","Locality":"Buchanan"},"coordinates":[1818,2992]},{"type":"Point","properties":{"Zip Code":24622,"Name":"Jewell Ridge","State":"VA","Locality":"Tazewell"},"coordinates":[2083,2356]},{"type":"Point","properties":{"Zip Code":24624,"Name":"Keen Mountain","State":"VA","Locality":"Buchanan"},"coordinates":[1867,2284]},{"type":"Point","properties":{"Zip Code":24627,"Name":"Mavisdale","State":"VA","Locality":"Buchanan"},"coordinates":[1577,2279]},{"type":"Point","properties":{"Zip Code":24628,"Name":"Maxie","State":"VA","Locality":"Buchanan"},"coordinates":[1635,2635]},{"type":"Point","properties":{"Zip Code":24630,"Name":"North Tazewell","State":"VA","Locality":"Tazewell"},"coordinates":[2434,2108]},{"type":"Point","properties":{"Zip Code":24631,"Name":"Oakwood","State":"VA","Locality":"Buchanan"},"coordinates":[1860,2220]},{"type":"Point","properties":{"Zip Code":24634,"Name":"Pilgrims Knob","State":"VA","Locality":"Buchanan"},"coordinates":[1958,2627]},{"type":"Point","properties":{"Zip Code":24635,"Name":"Pocahontas","State":"VA","Locality":"Tazewell"},"coordinates":[2662,2644]},{"type":"Point","properties":{"Zip Code":24637,"Name":"Pounding Mill","State":"VA","Locality":"Tazewell"},"coordinates":[2182,1778]},{"type":"Point","properties":{"Zip Code":24639,"Name":"Raven","State":"VA","Locality":"Buchanan"},"coordinates":[1986,2092]},{"type":"Point","properties":{"Zip Code":24640,"Name":"Red Ash","State":"VA","Locality":"Tazewell"},"coordinates":[2008,1969]},{"type":"Point","properties":{"Zip Code":24641,"Name":"Richlands","State":"VA","Locality":"Tazewell"},"coordinates":[2081,1900]},{"type":"Point","properties":{"Zip Code":24646,"Name":"Rowe","State":"VA","Locality":"Buchanan"},"coordinates":[1816,2019]},{"type":"Point","properties":{"Zip Code":24647,"Name":"Shortt Gap","State":"VA","Locality":"Buchanan"},"coordinates":[2006,2124]},{"type":"Point","properties":{"Zip Code":24649,"Name":"Swords Creek","State":"VA","Locality":"Russell"},"coordinates":[1963,1828]},{"type":"Point","properties":{"Zip Code":24651,"Name":"Tazewell","State":"VA","Locality":"Tazewell"},"coordinates":[2452,1949]},{"type":"Point","properties":{"Zip Code":24656,"Name":"Vansant","State":"VA","Locality":"Buchanan"},"coordinates":[1693,2183]},{"type":"Point","properties":{"Zip Code":24657,"Name":"Whitewood","State":"VA","Locality":"Buchanan"},"coordinates":[1985,2505]},{"type":"Point","properties":{"Zip Code":24658,"Name":"Wolford","State":"VA","Locality":"Buchanan"},"coordinates":[1860,2860]},{"type":"Point","properties":{"Zip Code":22551,"Name":"Spotsylvania","State":"VA","Locality":"Spotsylvania"},"coordinates":[7272,5828]}]}},"arcs":[],"transform":{"scale":[0.0008134181418141818,0.0002817923792379237],"translate":[-83.504737,36.558558]},"bbox":[-83.504737,36.558558,-75.371369,39.3762]}